STATION_ID,LATITUDE,LONGITUDE,COUNTRY,ELEVATION
GHCND:US1CAMA0005,37.2579689,-119.7137604,United States,699.8
GHCND:US1OHMY0021,39.71797,-84.19394,United States,250.5
GHCND:US1MIVB0004,42.265824,-85.861936,United States,216.1
GHCND:US1WAWC0036,48.868979,-122.626541,United States,110.6
GHCND:US1NMOT0040,32.64086,-105.68109,United States,2186
GHCND:US1NMSN0054,35.269838,-106.616355,United States,1567.9
GHCND:US1COGF0054,39.55763245,-107.3353577,United States,1709.6
GHCND:US1PACB0020,40.844251,-75.684164,United States,188.1
GHCND:US1NJES0019,40.8615,-74.2775,United States,81.4
GHCND:US1OHLK0011,41.76833333,-81.06972222,United States,224.6
GHCND:ASN00068245,-34.9528,150.7019,Australia,25
GHCND:US1OHHR0005,41.26463699,-82.43525696,United States,263
GHCND:US1NCCT0044,35.76074,-81.32357,United States,327.7
GHCND:US1CAPC0031,38.769501,-121.228157,United States,104.2
GHCND:US1CAKN0029,34.819721,-118.995574,United States,1579.8
GHCND:US1MDMG0002,39.142818,-77.144362,United States,150
GHCND:US1PANH0015,40.9375,-75.1445,United States,225.6
GHCND:US1AZPM0321,32.241516,-110.801342,United States,783.9
GHCND:US1NMSN0100,35.164413,-106.302192,United States,2071.1
GHCND:US1PAPK0023,41.309747,-75.051546,United States,459.6
GHCND:US1NYDL0031,42.196411,-74.95975,United States,465.7
GHCND:US1MDMG0070,38.989327,-77.008792,United States,82.3
GHCND:US1MOFSA187,37.76931,-90.4489,United States,271
GHCND:USC00216920,45.7576,-94.2072,United States,323.1
GHCND:US1PABR0021,40.46515,-75.668171,United States,305.4
GHCND:US1ILMP0012,39.280038,-89.860797,United States,189
GHCND:US1MOOS0010,38.3389,-92.1385,United States,277.1
GHCND:US1NYDT0039,41.661546,-73.919407,United States,52.4
GHCND:ASN00088138,-37.2348,144.9962,Australia,307
GHCND:ASN00092128,-42.6067,147.7214,Australia,67
GHCND:US1KYGT0002,38.64225,-84.5606,United States,292.9
GHCND:US1ARLG0004,35.337355,-93.522861,United States,124.7
GHCND:US1INOR0027,38.545819,-86.500161,United States,178.3
GHCND:US1NMSC0060,34.051423,-106.874451,United States,1400.6
GHCND:US1AZPM0174,32.1383,-110.9105,United States,802.5
GHCND:US1CANV0006,39.149431,-121.041941,United States,704.7
GHCND:US1AZPN0071,32.52596,-110.886221,United States,1004.3
GHCND:USC00234660,36.9381,-90.3223,United States,177.4
GHCND:US1ARPS0045,34.87146378,-92.47895813,United States,91.7
GHCND:US1NMSN0076,35.2415657,-106.5976563,United States,1531.9
GHCND:US1MDHR0031,39.49733,-76.1514,United States,19.5
GHCND:ASN00091316,-41.3994,147.1347,Australia,20
GHCND:US1INEL0015,41.59978,-85.872915,United States,242.9
GHCND:US1MNMR0022,45.9746,-94.09929,United States,357.2
GHCND:US1MIKN0053,42.949178,-85.526282,United States,241.1
GHCND:US1NMSN0119,35.315731,-106.463556,United States,1762
GHCND:US1WVPR0003,39.360833,-79.689722,United States,435.9
GHCND:US1TXEP0126,31.650643,-106.300244,United States,1117.4
GHCND:US1CASN0043,38.43003,-122.749895,United States,35.4
GHCND:US1RIWS0031,41.573821,-71.472444,United States,22.3
GHCND:ASN00060137,-31.7683,151.8889,Australia,120
GHCND:US1INWS0018,38.4958,-85.983,United States,251.5
GHCND:ASN00071071,-36.4722,148.6232,Australia,965
GHCND:US1MOFSA186,37.9672,-90.0495,United States,129.8
GHCND:US1MDCC0003,39.623611,-75.830667,United States,28.7
GHCND:US1ILSC0006,38.408514,-89.880353,United States,128.9
GHCND:US1ILCK0175,42.0889,-87.74,United States,195.4
GHCND:US1INNB0013,41.44281,-85.262468,United States,298.1
GHCND:US1KYAN0007,38.028775,-84.89879167,United States,253.3
GHCND:US1INDL0030,40.1697,-85.387,United States,292
GHCND:US1NJCD0018,39.46606417,-75.099143,United States,24.4
GHCND:US1NMVL0033,34.653147,-106.751045,United States,1466.1
GHCND:US1OHDL0008,40.16415,-83.168696,United States,294.1
GHCND:US1ILMP0010,39.066387,-89.72805,United States,207
GHCND:UKE00115811,52.4831,1.7308,United Kingdom,18
GHCND:US1NYOG0038,43.033776,-76.029973,United States,149.4
GHCND:US1NJMS0074,40.78845,-74.545857,United States,108.8
GHCND:US1ARPL0007,34.70039,-94.40992,United States,465.4
GHCND:US1WASG0023,48.4277,-122.3886,United States,5.5
GHCND:US1CASC0004,37.305,-121.775,United States,68
GHCND:US1CAMR0001,38.076648,-122.564333,United States,90.2
GHCND:US1INMG0008,39.4328,-86.378762,United States,224.9
GHCND:US1NMBR0196,35.132517,-106.515917,United States,1749.6
GHCND:US1AZPM0247,32.30096,-111.06799,United States,707.7
GHCND:US1INSJ0047,41.6725347,-86.3803964,United States,229.2
GHCND:USC00306523,42.7215,-78.0083,United States,415.1
GHCND:US1MNWD0001,46.39745,-95.01589,United States,411.5
GHCND:US1OHSC0006,38.82955872,-82.94110514,United States,254.2
GHCND:US1ARGL0016,34.46006393,-93.04961395,United States,158.8
GHCND:US1AZPM0199,32.24225998,-111.009552,United States,714.8
GHCND:CA1ON000313,43.423621,-79.902563,Canada,228
GHCND:US1MNGR0011,45.800798,-95.857524,United States,364.5
GHCND:US1NMSF0057,35.740857,-105.916255,United States,2130.6
GHCND:US1MDWH0010,39.52009583,-77.64907837,United States,185.9
GHCND:US1NMBR0316,35.09186,-106.48699,United States,1821.5
GHCND:ASN00025560,-36.3098,140.74,Australia,85
GHCND:US1MDFR0010,39.6125,-77.405,United States,152.7
GHCND:ASN00008305,-29.2778,114.9464,Australia,20
GHCND:US1NJMN0064,40.1302,-74.2145,United States,29.6
GHCND:US1NJAT0005,39.640364,-74.826086,United States,29.9
GHCND:USC00309248,43.1595,-75.4611,United States,172.2
GHCND:US1PAWT0009,40.31358,-79.5543215,United States,341.1
GHCND:GRE00155874,37.53,22.4,Greece,652
GHCND:US1CALA0097,33.721466,-118.295421,United States,85
GHCND:ASN00009267,-31.7003,116.1853,Australia,290
GHCND:US1ILCK0094,42.001874,-87.69847,United States,184.1
GHCND:US1SCYR0023,35.13817978,-81.29381561,United States,220.4
GHCND:US1CALA0048,34.0317628,-118.4852755,United States,56.7
GHCND:US1NYBM0034,42.08258,-75.99122,United States,423.7
GHCND:US1MDAA0059,38.959166,-76.488006,United States,8.5
GHCND:US1CARV0060,33.63083,-117.33973,United States,413.6
GHCND:US1CASD0022,32.949141,-117.058811,United States,135.3
GHCND:US1NYCM0006,42.089,-76.74888,United States,341.4
GHCND:US1KYSC0023,38.215528,-84.564461,United States,260.6
GHCND:US1MOMT0002,38.63286,-92.565556,United States,271
GHCND:US1PASM0006,39.9215,-79.2377,United States,641
GHCND:US1NCRW0016,35.589538,-80.465536,United States,254.8
GHCND:US1MDKN0008,39.355407,-75.848286,United States,9.8
GHCND:US1MDCH0014,38.650047,-76.85343,United States,61
GHCND:US1INLW0011,38.915029,-86.559882,United States,199
GHCND:US1CASC0045,37.116826,-121.659105,United States,132
GHCND:US1NMBR0017,35.1861,-106.5071,United States,1816
GHCND:USC00318906,35.52364,-81.44435,United States,300.2
GHCND:US1MNSR0048,45.4195015,-94.1973761,United States,326.7
GHCND:US1MOCW0005,39.016472,-91.889055,United States,259.1
GHCND:US1MODT0013,37.7766,-91.7256,United States,368.2
GHCND:USC00037383,34.3827,-94.3608,United States,344.1
GHCND:US1NMDA0196,32.343714,-106.742716,United States,1295.1
GHCND:US1CALK0013,39.435773,-122.96888,United States,585.8
GHCND:ASN00008308,-28.8,115.76,Australia,340
GHCND:ASN00094196,-42.9142,147.2739,Australia,280
GHCND:ASN00094219,-43.1547,147.0539,Australia,120
GHCND:USC00048760,39.06,-120.1292,United States,1924.8
GHCND:US1MOPH0035,37.944894,-91.760368,United States,336.2
GHCND:US1MNSW0003,45.3514,-95.91667,United States,333.8
GHCND:US1CAYB0001,39.451765,-121.280096,United States,624.5
GHCND:ASN00091324,-41.2858,147.0192,Australia,39
GHCND:US1NMBR0201,35.1342,-106.5193,United States,1742.5
GHCND:US1PALC0004,41.48,-75.57,United States,274
GHCND:US1OHFR0048,39.994647,-83.013145,United States,232.3
GHCND:USR0000MCAR,37.1806,-91.1181,United States,426.7
GHCND:US1MNSV0004,45.716491,-96.06043,United States,338
GHCND:US1INPT0028,41.444192,-87.1209,United States,242
GHCND:ASN00062105,-32.2286,149.4346,Australia,476
GHCND:US1PABK0033,40.46313,-75.328066,United States,158.8
GHCND:US1CASN0033,38.447537,-122.755321,United States,34.7
GHCND:US1PAMN0005,41.221732,-75.370777,United States,645
GHCND:US1NMSR0062,33.3526,-107.6491,United States,1887
GHCND:US1MABA0052,42.00210953,-70.0506134,United States,22.3
GHCND:US1CTHR0034,41.953045,-72.804723,United States,71
GHCND:US1CATH0005,40.159076,-122.35154,United States,127.4
GHCND:US1WVKN0034,38.38436,-81.81312,United States,178.9
GHCND:US1COME0007,39.2222,-108.7063,United States,1427.1
GHCND:US1KYBT0002,38.055096,-85.544697,United States,208.2
GHCND:US1NMDA0294,32.311863,-106.736069,United States,1282.3
GHCND:US1DCDC0014,38.958091,-77.08173,United States,106.4
GHCND:US1DENC0060,39.81473923,-75.53128815,United States,112.8
GHCND:US1KYAN0006,37.94953,-85.004207,United States,230.1
GHCND:CA1ON000216,42.1735306,-82.426178,Canada,183.8
GHCND:US1OHHD0023,40.6721,-83.4908,United States,287.1
GHCND:US1ARBT0048,36.25769424,-94.12857819,United States,412.1
GHCND:US1KYBT0012,38.081495,-85.680782,United States,166.7
GHCND:USR0000CBIH,41.0975,-123.6358,United States,1088.1
GHCND:ASN00008306,-28.0636,115.1903,Australia,255
GHCND:US1MAPL0033,41.95028,-70.68063,United States,43.3
GHCND:US1AZPM0128,32.2188,-110.905793,United States,769.3
GHCND:US1NJGL0006,39.593611,-75.069191,United States,27.7
GHCND:US1AZPM0129,32.413194,-110.996913,United States,831.2
GHCND:USC00288173,39.83671,-75.04462,United States,16.8
GHCND:US1ARMR0008,36.25482,-92.84479,United States,241.1
GHCND:ASN00062000,-32.9698,148.9141,Australia,550
GHCND:CA1ON000131,42.326561,-82.8873291,Canada,177.1
GHCND:US1CTLT0005,41.96102,-73.089999,United States,353.6
GHCND:US1NMBR0330,35.104855,-106.618631,United States,1556.9
GHCND:US1MDHW0015,39.28379,-76.86304,United States,120.1
GHCND:US1MDMG0056,39.126822,-77.086482,United States,139
GHCND:US1CODL0045,39.03915787,-108.0030365,United States,3169.6
GHCND:US1NYSV0003,41.82,-74.99,United States,350.5
GHCND:US1NCGS0037,35.288582,-81.330879,United States,284.4
GHCND:US1WAJF0029,48.13549563,-122.8008004,United States,28.3
GHCND:US1WASG0047,48.537,-121.797,United States,50.6
GHCND:US1PAAD0070,39.7525,-77.0896,United States,176.2
GHCND:ASN00092111,-41.4342,147.7192,Australia,362
GHCND:US1COMT0056,38.44627,-107.92029,United States,1827.6
GHCND:US1OHHG0003,39.19828534,-83.61789487,United States,334.4
GHCND:US1MDHW0026,39.2052,-76.839,United States,119.2
GHCND:ASN00074261,-34.531,146.9806,Australia,249
GHCND:US1MSRN0033,32.1481,-90.1444,United States,94.2
GHCND:US1NMSN0143,35.2345,-106.70569,United States,1648.4
GHCND:US1RIWS0036,41.360861,-71.691184,United States,8.2
GHCND:US1CAVT0005,34.272618,-119.276114,United States,17.1
GHCND:US1NCWT0026,36.264213,-81.6673239,United States,1004.3
GHCND:US1OHWR0013,39.31811,-84.22482,United States,239.3
GHCND:USC00314972,35.8425,-80.29472,United States,231.6
GHCND:US1INRN0007,40.2961,-85.1794,United States,291.1
GHCND:US1ILSC0013,38.512239,-89.953925,United States,151.5
GHCND:US1ARVB0001,35.674907,-92.540844,United States,209.1
GHCND:US1NJMS0008,40.82322775,-74.54842418,United States,265.2
GHCND:US1MDCV0006,38.762708,-76.636349,United States,43.9
GHCND:US1INKS0064,41.300231,-85.811086,United States,258.2
GHCND:US1NMLU0061,32.257433,-107.740134,United States,1316.7
GHCND:US1NMBR0051,35.146015,-106.693867,United States,1544.1
GHCND:US1AZPM0307,32.39085,-110.99125,United States,756.2
GHCND:USR0000NLEX,35.7922,-80.312,United States,228.6
GHCND:US1NYOT0013,42.6332375,-75.3195499,United States,345.3
GHCND:US1COPT0017,39.168,-107.245,United States,2225.3
GHCND:US1NYOG0026,43.232196,-76.118758,United States,116.4
GHCND:US1NJBG0010,40.99145,-74.012348,United States,9.4
GHCND:US1AZCH0058,31.95123482,-110.4182358,United States,1318
GHCND:US1NJOC0063,40.071824,-74.125689,United States,9.4
GHCND:USC00445204,38.73332,-77.49263,United States,74.7
GHCND:US1INJY0013,40.4149,-85.02612,United States,283.5
GHCND:US1INPT0033,41.445606,-87.050656,United States,242
GHCND:ASN00070174,-34.9594,149.8551,Australia,650
GHCND:US1KYJF0072,38.247126,-85.663752,United States,163.4
GHCND:US1COMT0036,38.476,-107.842,United States,1804.1
GHCND:US1NMDA0259,31.849959,-106.635117,United States,1161.3
GHCND:US1MIBR0021,42.7151,-85.4753,United States,241.1
GHCND:ASN00082167,-36.5344,146.2181,Australia,174
GHCND:ASN00094209,-43.0831,147.2456,Australia,85
GHCND:US1OHSD0003,41.3148042,-82.9761113,United States,197.8
GHCND:US1NYSF0007,40.93639,-72.57778,United States,6.1
GHCND:US1CASR0068,34.0089,-117.6534,United States,220.7
GHCND:US1NMBR0121,35.115758,-106.718827,United States,1560
GHCND:SPE00156261,41.9775,3.0353,Spain,29
GHCND:US1NYER0053,42.836038,-78.789668,United States,185.9
GHCND:US1ARFR0004,35.470881,-93.740058,United States,266.7
GHCND:US1KYSC0013,38.285284,-84.652212,United States,256.3
GHCND:US1NYDT0009,41.923129,-73.902141,United States,64.6
GHCND:US1MIGT0006,44.7339,-85.6789,United States,288
GHCND:US1CASD0104,32.86508,-116.61753,United States,1062.8
GHCND:US1CASM0022,37.37538147,-122.2637405,United States,485.2
GHCND:US1PALH0025,40.49818,-75.44143,United States,194.8
GHCND:US1COGF0073,39.44083023,-107.314888,United States,2107.4
GHCND:US1PAFY0019,39.776739,-79.530213,United States,686.7
GHCND:US1MOCP0007,38.962679,-92.739008,United States,225.2
GHCND:US1CAOR0016,33.589433,-117.865235,United States,25.6
GHCND:USR0000CELC,33.6472,-117.4111,United States,926
GHCND:US1MIOW0001,42.920457,-85.817255,United States,196
GHCND:US1NYMR0029,43.219917,-77.912445,United States,147.2
GHCND:US1MOSL0076,38.4692,-90.3496,United States,172.8
GHCND:USR0000CAGD,35.1792,-120.3919,United States,319.4
GHCND:US1CASA0011,38.54718,-121.471496,United States,7.3
GHCND:ASN00040969,-27.0717,153.1058,Australia,7
GHCND:US1COMT0045,38.518889,-108.011944,United States,1758.7
GHCND:US1ILMD0041,38.70328,-89.897876,United States,170.4
GHCND:US1NYRN0028,42.516059,-73.423188,United States,229.2
GHCND:US1CTHR0007,41.747555,-72.551875,United States,87.2
GHCND:ASN00056243,-29.678,151.694,Australia,1044.3
GHCND:US1MIWS0025,42.12618,-83.81094,United States,249.9
GHCND:US1INLP0006,41.726419,-86.884267,United States,189.9
GHCND:US1OHSM0039,41.114027,-81.419702,United States,371.9
GHCND:US1COGF0035,39.504444,-107.186667,United States,2529.8
GHCND:US1NMDA0364,32.6729,-107.154,United States,1237.5
GHCND:US1MDAA0020,38.875728,-76.50459,United States,3.7
GHCND:US1NMBR0066,35.119816,-106.501382,United States,1765.1
GHCND:US1NJBG0058,40.9249,-74.00268,United States,19.2
GHCND:ASN00040832,-28.2033,152.77,Australia,110
GHCND:ASN00092115,-40.9933,148.3467,Australia,13
GHCND:US1CACC0016,37.978325,-122.013418,United States,37.8
GHCND:US1NCRN0008,35.858942,-80.043944,United States,266.7
GHCND:US1CAAL0008,37.855675,-122.230053,United States,268.8
GHCND:USC00218260,46.008,-96.4651,United States,301.4
GHCND:US1INAL0083,41.031284,-85.324465,United States,259.7
GHCND:ASN00097088,-42.0983,145.6733,Australia,245
GHCND:US1OHAZ0015,40.501916,-84.392861,United States,270.4
GHCND:US1NJBT0019,39.9368,-74.9084,United States,12.2
GHCND:US1NJGL0022,39.80086,-75.23866,United States,13.1
GHCND:US1NYER0113,42.837002,-78.743309,United States,198.4
GHCND:US1WASJ0040,48.55683,-123.07922,United States,100
GHCND:US1NMGR0064,32.9677,-108.0397,United States,1972.1
GHCND:US1MDCC0009,39.6829,-76.0771,United States,129.8
GHCND:US1MAMD0074,42.382003,-71.094581,United States,19.8
GHCND:US1MIOW0043,42.952753,-86.213164,United States,185.3
GHCND:US1ILUN0006,37.522327,-89.248493,United States,178.9
GHCND:US1MDBL0009,39.4692,-76.53104,United States,139.9
GHCND:ASN00069048,-35.7581,149.8252,Australia,120
GHCND:US1MIEM0003,45.54933971,-85.11435453,United States,196
GHCND:US1OHAT0010,39.460793,-82.225978,United States,229.8
GHCND:US1MDBL0046,39.291851,-76.740657,United States,142
GHCND:US1MAMD0032,42.271514,-71.462163,United States,79.9
GHCND:US1MIWY0022,42.1950019,-83.3035003,United States,190.2
GHCND:US1NMDA0293,32.310985,-106.781474,United States,1194.2
GHCND:US1OHFR0024,40.092491,-82.958236,United States,0
GHCND:CA1ON000033,43.3713417,-79.8355103,Canada,162.5
GHCND:US1MIWS0021,42.1617,-83.7669,United States,236.2
GHCND:US1NYNG0042,43.141,-78.8618,United States,187.5
GHCND:US1NJSM0009,40.593649,-74.643393,United States,42.1
GHCND:US1MABA0042,41.765598,-70.001007,United States,6.7
GHCND:US1INDL0032,40.187831,-85.371891,United States,293.2
GHCND:US1WVLN0003,38.186413,-82.111559,United States,215.8
GHCND:US1INWL0006,40.725386,-85.152772,United States,250.2
GHCND:US1MDMG0010,39.143755,-77.073519,United States,154.8
GHCND:US1MDFR0011,39.428884,-77.515158,United States,203.9
GHCND:US1INDV0012,38.785,-87.1553,United States,168.2
GHCND:US1NYTM0012,42.408704,-76.483539,United States,362.1
GHCND:CA1BC000046,49.841134,-124.527098,Canada,41.5
GHCND:US1NCMK0095,35.49434,-80.84195,United States,245.1
GHCND:US1NCMK0059,35.118667,-80.767196,United States,201.5
GHCND:US1NYER0058,42.842053,-78.804097,United States,185.9
GHCND:US1INDL0043,40.22152,-85.39669,United States,289.6
GHCND:US1MIBN0004,41.83705,-86.30048,United States,219.2
GHCND:US1CTNL0024,41.3536,-71.9116,United States,10.4
GHCND:US1CAPC0010,38.84717,-121.1584,United States,185.9
GHCND:US1MDDR0007,38.566942,-76.103221,United States,3.4
GHCND:US1INPT0024,41.398869,-87.031058,United States,224
GHCND:US1RIWS0014,41.4854044,-71.6290689,United States,36.3
GHCND:US1PADP0033,40.302224,-76.674461,United States,131.7
GHCND:US1OHSH0002,40.515785,-83.893159,United States,303.9
GHCND:USC00151228,38.9685,-84.3369,United States,182.6
GHCND:US1OHER0043,41.428651,-82.694812,United States,182.3
GHCND:US1WAWC0052,48.711254,-122.471451,United States,86.3
GHCND:US1AZPM0127,32.210626,-110.769482,United States,862
GHCND:USC00301011,42.9461,-78.8368,United States,190.5
GHCND:US1NMBR0139,35.165437,-106.606399,United States,1547.8
GHCND:US1NMLU0075,32.412584,-108.178704,United States,1537.7
GHCND:USC00046936,38.44472,-120.51222,United States,914.4
GHCND:ASN00040914,-27.4942,152.4972,Australia,74
GHCND:SPE00156639,41.9956,1.0256,Spain,594
GHCND:USR0000CARR,36.23,-121.4917,United States,298.7
GHCND:US1NMBR0156,35.148,-106.255,United States,2110.1
GHCND:USW00023285,37.6927,-121.8144,United States,119.8
GHCND:US1CASM0039,37.585015,-122.376263,United States,21.6
GHCND:US1MABR0061,42.03591,-71.17473,United States,58.2
GHCND:US1OHCN0016,39.421571,-83.822257,United States,320.6
GHCND:US1KYFR0013,38.174098,-84.799056,United States,247.2
GHCND:US1PAWN0048,41.567753,-75.1908403,United States,378.9
GHCND:ASN00025562,-35.3778,140.5378,Australia,110.1
GHCND:US1ILMD0003,38.722833,-89.673642,United States,161.5
GHCND:US1NJMS0087,40.90789,-74.64077,United States,323.7
GHCND:US1CTTL0004,41.741399,-72.217436,United States,103
GHCND:US1MDAA0027,39.13732,-76.65905,United States,46
GHCND:US1NYWC0007,41.264924,-73.789896,United States,174
GHCND:US1NMDA0291,32.390053,-106.791313,United States,1266.4
GHCND:US1NJSS0046,41.173143,-74.676639,United States,165.5
GHCND:US1NJOC0056,39.884693,-74.174119,United States,13.7
GHCND:US1NJMN0048,40.296952,-74.00151,United States,7.9
GHCND:US1NYRN0004,42.8962,-73.353843,United States,141.4
GHCND:US1AZPM0355,32.37504,-110.971135,United States,791.9
GHCND:US1NMDA0082,32.2638,-106.746,United States,1189.9
GHCND:US1INPT0006,41.474436,-87.059449,United States,246
GHCND:US1CASD0061,32.772353,-116.919726,United States,209.1
GHCND:US1MSWR0007,32.1541089,-90.9074381,United States,52.4
GHCND:US1INML0013,41.41011667,-86.40391667,United States,244.8
GHCND:US1COME0010,39.1791,-108.6569,United States,1420.1
GHCND:US1WAWC0045,48.76146698,-122.493309,United States,23.2
GHCND:US1INDV0021,38.66458,-87.04694,United States,170.7
GHCND:US1NMLU0062,32.24283524,-107.4764391,United States,1260.3
GHCND:US1NMSN0137,35.284515,-106.711075,United States,1701.4
GHCND:US1KYJF0033,38.256198,-85.693504,United States,162.5
GHCND:ASN00040960,-27.3247,152.9031,Australia,81
GHCND:US1INKS0058,41.401447,-85.669403,United States,268.2
GHCND:US1NYSF0019,40.8122876,-72.771788,United States,12.8
GHCND:US1CACC0007,37.908976,-122.15472,United States,250.5
GHCND:US1WVJF0006,39.31543,-77.8304,United States,149.4
GHCND:US1CAAL0004,37.648266,-121.874518,United States,107
GHCND:US1OHCM0016,39.102171,-84.305234,United States,270.1
GHCND:USW00093075,38.75,-109.76278,United States,1389.9
GHCND:US1MOML0001,38.3861,-92.6308,United States,271.9
GHCND:US1NYER0072,43.01368,-78.82959,United States,173.7
GHCND:ASN00040891,-25.6022,152.2603,Australia,164
GHCND:US1CALA0054,34.140575,-118.628128,United States,329.2
GHCND:USW00003178,32.57222,-116.97944,United States,157
GHCND:USW00024215,41.3325,-122.33278,United States,1077.5
GHCND:USW00094624,41.6875,-69.99333,United States,20.7
GHCND:USC00033200,35.33846,-92.84907,United States,103.6
GHCND:USW00003102,34.05611,-117.60028,United States,289.3
GHCND:USW00023152,34.20056,-118.3575,United States,225.9
GHCND:USW00003196,31.42083,-110.84583,United States,1198.5
GHCND:USW00023293,37.3591,-121.924,United States,15.5
GHCND:USW00023213,38.5038,-122.8102,United States,34.7
GHCND:USW00023277,36.9358,-121.7886,United States,48.8
GHCND:USW00094726,41.67639,-70.95833,United States,24.4
GHCND:USC00190840,41.9538,-70.9571,United States,12.2
GHCND:USW00054704,42.19083,-71.17361,United States,15.2
GHCND:USC00232981,37.74794,-92.10519,United States,342.3
GHCND:USW00014815,42.3075,-85.25111,United States,282.9
GHCND:USW00004839,42.74611,-86.09667,United States,210
GHCND:USC00238252,36.59375,-93.31177,United States,286.5
GHCND:USW00004848,41.56306,-83.47639,United States,189.6
GHCND:USC00349101,36.348,-94.8244,United States,242.3
GHCND:USW00004726,40.31611,-78.83389,United States,696.2
GHCND:USW00004857,41.77806,-80.69583,United States,281.6
GHCND:USC00303769,42.485,-78.93667,United States,265.2
GHCND:USC00467743,38.7778,-80.9636,United States,228.6
GHCND:USC00306376,43.3319,-76.2691,United States,135.6
GHCND:USW00003085,32.0095,-109.3891,United States,1564.5
GHCND:USC00207891,42.0017,-86.5222,United States,179.8
GHCND:USW00003087,35.8245,-106.3178,United States,2212.2
GHCND:USW00003098,39.4827,-106.7337,United States,2622.8
GHCND:USC00460784,38.6033,-81.0328,United States,266.7
GHCND:USC00154732,37.8934,-86.906,United States,120.4
GHCND:USW00094276,48.52222,-123.02306,United States,33.2
GHCND:USC00441692,37.1278,-80.4033,United States,640.1
GHCND:USW00054781,42.89351,-73.24876,United States,240.8
GHCND:USW00053904,38.92861,-90.42806,United States,132.9
GHCND:USW00004849,41.34611,-82.17944,United States,242
GHCND:USC00360582,41.2322,-76.3423,United States,333.8
GHCND:USC00111550,41.8558,-87.6094,United States,177.7
GHCND:USC00208774,44.2294,-85.9572,United States,235.6
GHCND:USC00309049,43.2419,-77.3882,United States,83.8
GHCND:USC00232825,39.0723,-92.6217,United States,222.5
GHCND:USC00351058,42.0463,-124.2877,United States,25
GHCND:USC00462211,39.098,-79.4322,United States,1132.3
GHCND:USC00206510,45.3613,-84.9512,United States,228
GHCND:USW00093241,38.3777,-121.9575,United States,33.2
GHCND:USC00128992,41.5436,-87.0319,United States,264.9
GHCND:USC00301625,42.6472,-78.7111,United States,467.9
GHCND:USW00003733,39.013,-79.4743,United States,1033.3
GHCND:USW00054796,41.4911,-71.5413,United States,35.1
GHCND:USW00053866,39.57806,-85.80333,United States,245.1
GHCND:USC00203930,44.3122,-84.7747,United States,353.9
GHCND:USW00004223,48.5405,-121.446,United States,124.1
GHCND:USW00003761,39.8593,-75.7861,United States,121.9
GHCND:USW00003048,34.3557,-106.8859,United States,1477.4
GHCND:USW00054797,41.4782,-71.5417,United States,32.3
GHCND:USW00053151,33.4392,-117.1904,United States,347.5
GHCND:USW00064756,41.7857,-73.7422,United States,125.9
GHCND:USW00003074,32.6137,-106.7414,United States,1318.9
GHCND:USW00063838,38.0945,-84.7465,United States,271.6
GHCND:USW00023909,37.6344,-91.7226,United States,365.2
GHCND:USW00003060,38.544,-107.6928,United States,2560.9
GHCND:USW00053131,32.2395,-111.1696,United States,833
GHCND:USW00053150,37.7592,-119.8208,United States,2017.8
GHCND:USW00004222,40.6507,-122.6068,United States,432.2
GHCND:USW00003062,35.8584,-106.5214,United States,2656.6
GHCND:USW00053132,31.5907,-110.5087,United States,1466.4
GHCND:USW00063898,38.8882,-86.5707,United States,231.6
GHCND:USW00053152,34.4141,-119.8796,United States,5.5
GHCND:USW00054854,44.908,-84.7203,United States,445.3
GHCND:USW00093245,38.3208,-123.0747,United States,19.2
GHCND:USW00093243,37.2381,-120.8825,United States,23.8
GHCND:USW00064758,42.4401,-76.2462,United States,374.3
GHCND:USW00053006,31.6922,-111.4481,United States,1005.8
GHCND:USW00003076,39.1018,-108.7353,United States,1769.7
GHCND:US1NJSS0010,41.02436,-74.623401,United States,308.5
GHCND:US1RIWS0020,41.40557036,-71.52734287,United States,20.7
GHCND:US1NMDA0001,32.3587,-106.8289,United States,1192.1
GHCND:US1INAD0001,40.6534,-84.96793,United States,264
GHCND:US1AZPM0072,32.275441,-110.784505,United States,808.9
GHCND:US1MOSL0055,38.826269,-90.29513,United States,161.8
GHCND:USC00223441,31.1699,-91.0259,United States,116.4
GHCND:CA1BC000003,49.096651,-123.073915,Canada,1.2
GHCND:ASN00024582,-35.1016,139.1426,Australia,100
GHCND:US1INMT0001,38.674123,-86.908586,United States,180.1
GHCND:US1LAWF0005,30.979924,-91.357348,United States,71
GHCND:US1PACB0023,40.83673,-75.69972,United States,163.1
GHCND:US1NVWH0003,39.39541,-119.79,United States,1554.5
GHCND:US1WASG0026,48.530097,-121.830552,United States,51.2
GHCND:US1PAAL0004,40.475887,-79.79823,United States,350.5
GHCND:US1TXEP0079,31.7778,-106.3686,United States,1205.5
GHCND:US1MABA0037,41.79238892,-70.01550293,United States,5.2
GHCND:US1MOFSA071,38.4562,-91.0013,United States,164
GHCND:US1COMT0024,38.383019,-107.819919,United States,1873
GHCND:US1NYST0003,42.05672,-77.04847,United States,527.3
GHCND:US1KYKN0007,38.989614,-84.515212,United States,250.5
GHCND:US1NMLU0004,32.253923,-107.741349,United States,1317
GHCND:US1PABR0036,40.3198,-75.8777,United States,117
GHCND:US1ILUN0001,37.523171,-89.071468,United States,150.9
GHCND:US1MANF0027,42.2455,-71.0276,United States,14.6
GHCND:US1NYER0068,42.93135,-78.67848,United States,222.5
GHCND:US1AZPM0371,32.12388,-111.11536,United States,768.1
GHCND:US1OHPL0005,41.154572,-84.569123,United States,220.1
GHCND:US1MAFR0017,42.589,-72.7511,United States,283.5
GHCND:US1INFY0009,39.6379,-85.1583,United States,290.2
GHCND:USC00237775,39.1336,-91.00458,United States,211.8
GHCND:ASN00089053,-37.4491,142.9549,Australia,340
GHCND:ASN00023882,-34.8713,138.9058,Australia,76
GHCND:US1MNSR0007,45.6180682,-94.2338228,United States,314.6
GHCND:US1ARBN0002,36.192316,-93.193559,United States,475.8
GHCND:US1TXEP0086,31.78655815,-106.494072,United States,1244.8
GHCND:US1INFR0001,39.507289,-85.245139,United States,313.9
GHCND:US1OHHM0042,39.21577,-84.374615,United States,248.4
GHCND:US1AZCH0057,31.52999394,-110.2803842,United States,1410
GHCND:US1NCGS0038,35.21508,-81.144802,United States,235.3
GHCND:US1CASA0048,38.69581985,-121.3307877,United States,49.1
GHCND:US1OHWR0007,39.280103,-84.249608,United States,220.4
GHCND:ASN00009258,-32.2156,115.8758,Australia,18
GHCND:US1AZPM0074,32.3511,-110.9631,United States,839.1
GHCND:ASN00065004,-33.3596,148.9193,Australia,920
GHCND:US1NMSN0001,35.3289,-106.4357,United States,1737.1
GHCND:US1WVWD0009,39.26666667,-81.56166667,United States,187.5
GHCND:US1MOWR0006,38.82434517,-91.04960337,United States,233.2
GHCND:US1NMLU0023,32.2533,-107.7426,United States,400.2
GHCND:US1CATY0005,40.876777,-123.530238,United States,205.4
GHCND:US1PAMT0055,40.238379,-75.403329,United States,85.6
GHCND:US1CTFR0016,41.401727,-73.480967,United States,188.7
GHCND:US1INAL0004,40.99653,-85.14851,United States,239
GHCND:MJE00175528,43.3542,19.345,Montenegro,784
GHCND:US1NYUL0008,41.9162,-74.18317,United States,154.8
GHCND:ASN00072166,-35.386,147.3137,Australia,290
GHCND:ASN00068029,-34.7796,150.4614,Australia,150
GHCND:US1MDAA0013,39.1263,-76.5596,United States,18.9
GHCND:US1MDMG0066,38.998058,-77.155051,United States,68.3
GHCND:US1OHLR0005,41.29337,-82.16239,United States,234.7
GHCND:US1ILCK0336,42.04309,-87.6792,United States,185.3
GHCND:USC00308131,42.5572,-78.739,United States,459.6
GHCND:US1VAAR0011,38.878691,-77.152628,United States,96.6
GHCND:US1INMD0018,40.095273,-85.649657,United States,263
GHCND:US1RIWS0046,41.3665,-71.7444,United States,45.1
GHCND:US1NYCQ0039,42.205,-79.247,United States,465.1
GHCND:US1NVWH0025,39.542022,-119.895788,United States,1570
GHCND:SPE00156198,42.5342,1.0544,Spain,2519
GHCND:USR0000CLAG,32.8797,-116.4203,United States,1755.6
GHCND:US1INJN0006,39.00727,-85.637721,United States,228
GHCND:US1MOFSA017,37.3057,-89.9744,United States,141.1
GHCND:US1MOLC0004,39.065,-90.775204,United States,177.7
GHCND:US1MDHR0032,39.561,-76.3378,United States,121.6
GHCND:US1INAL0041,41.134432,-85.142662,United States,246.6
GHCND:US1NYBM0019,42.34422036,-75.8635354,United States,425.8
GHCND:US1WAJF0044,48.07702637,-122.8290863,United States,68.6
GHCND:US1ARYL0007,35.20551346,-93.20407905,United States,126.8
GHCND:ASN00058180,-28.6069,153.2083,Australia,60
GHCND:ASN00023122,-34.5106,138.6763,Australia,65
GHCND:US1VAHN0004,36.65747233,-79.83751573,United States,211.5
GHCND:US1PABR0029,40.3112,-76.0098,United States,139.3
GHCND:US1MIMB0031,42.539798,-83.080385,United States,192
GHCND:ASN00082157,-36.74,146.34,Australia,0
GHCND:US1INLP0043,41.729866,-86.613014,United States,253.3
GHCND:US1COGF0056,39.52195,-107.18606,United States,2781.6
GHCND:US1INPT0097,41.4646758,-87.0164381,United States,242.3
GHCND:US1MIBR0006,42.4511333,-85.0961,United States,279.2
GHCND:US1NMDA0357,32.356105,-106.727916,United States,1296
GHCND:ASN00021135,-33.842,138.6054,Australia,450
GHCND:USC00364835,39.7925,-79.70167,United States,823
GHCND:US1RIPR0010,41.999303,-71.506984,United States,75.6
GHCND:US1ARPY0003,34.96186111,-92.75788056,United States,93.3
GHCND:USR0000CLOP,34.5358,-119.7833,United States,310.9
GHCND:USR0000ANOO,32.6678,-109.7881,United States,1501.1
GHCND:US1ARMT0002,34.459,-93.682,United States,235
GHCND:MXN00032186,22.6667,-102.0333,Mexico,2045.8
GHCND:US1CTHR0009,41.802883,-72.776701,United States,103.6
GHCND:US1ILCK0104,41.94941,-87.670282,United States,182
GHCND:US1NMDA0097,32.266,-106.72,United States,1238.1
GHCND:US1VASM0006,36.84336,-81.5192,United States,688.5
GHCND:US1OHSM0014,40.953363,-81.523914,United States,310
GHCND:US1ARBT0057,36.36094,-94.26628,United States,386.2
GHCND:US1NVCC0002,39.162658,-119.758614,United States,1421.9
GHCND:US1CTNH0072,41.38554,-72.802406,United States,89.6
GHCND:US1INSJ0007,41.72375,-86.2134,United States,246
GHCND:US1CALA0091,34.164802,-118.124917,United States,289
GHCND:US1VAAR0006,38.8879,-77.1176,United States,99.1
GHCND:US1NVDG0024,38.89993,-119.84103,United States,1632.2
GHCND:US1NMBR0311,35.1369,-106.2889,United States,2087.6
GHCND:US1PALC0011,41.525672,-75.599267,United States,415.4
GHCND:US1NMSN0050,35.2697546,-106.7095759,United States,1727
GHCND:US1OHFR0012,40.0604,-83.0815,United States,267.9
GHCND:US1DCDC0010,38.97729754,-77.02445991,United States,88.1
GHCND:ASN00041551,-26.9669,151.4847,Australia,480
GHCND:ASN00095073,-42.7786,147.0819,Australia,6
GHCND:US1CADN0001,41.824032,-124.148236,United States,19.8
GHCND:CA1BC000018,49.29793,-122.84639,Canada,168.2
GHCND:ASN00092135,-41.5742,148.3117,Australia,11
GHCND:US1MIAN0008,42.727667,-85.739061,United States,213.1
GHCND:US1NYAB0041,42.664086,-73.793493,United States,64.9
GHCND:US1NCGL0021,36.023395,-79.957169,United States,272.2
GHCND:US1ILCK0117,41.912538,-87.669455,United States,178
GHCND:US1MOCG0008,37.34116,-89.54742,United States,146
GHCND:US1OHHM0055,39.225073,-84.501855,United States,88.1
GHCND:US1OHER0018,41.362132,-82.57453,United States,186.5
GHCND:US1MDPG0007,38.825734,-76.926631,United States,57
GHCND:US1NJPS0004,40.971307,-74.185553,United States,125.3
GHCND:US1NCBK0006,35.73945618,-81.56903076,United States,369.4
GHCND:US1MDMG0034,39.053469,-77.284231,United States,95.1
GHCND:US1PAFY0006,39.809957,-79.555461,United States,559.9
GHCND:US1MDCH0033,38.64404,-76.86389,United States,63.4
GHCND:ASN00023787,-35.0247,138.8578,Australia,412
GHCND:US1INAL0034,41.026747,-85.094579,United States,239.6
GHCND:US1MIKN0093,42.89531,-85.76006,United States,192
GHCND:US1PADP0006,40.313399,-76.75778,United States,124.1
GHCND:US1NVCC0021,39.166281,-119.774429,United States,1442.9
GHCND:US1CASD0115,32.750214,-117.245647,United States,7.3
GHCND:US1CAFR0003,36.989665,-119.397064,United States,509.9
GHCND:US1NMSC0029,34.0594127,-106.8990252,United States,1410.3
GHCND:US1NJCN0005,39.71095,-74.96793,United States,43
GHCND:US1MIBN0002,41.991137,-86.508585,United States,187.8
GHCND:US1NYOG0008,43.1,-76.166667,United States,129.8
GHCND:US1NYTM0015,42.32231,-76.58989,United States,487.1
GHCND:US1MIMB0065,42.66549,-82.79473,United States,178.9
GHCND:ASN00040948,-28.1461,152.7358,Australia,278
GHCND:US1LAEB0063,30.379058,-91.005062,United States,14.9
GHCND:ASN00065112,-33.4818,148.2608,Australia,250
GHCND:US1NMTR0016,34.731476,-106.166981,United States,1919
GHCND:US1NJGL0031,39.71030045,-75.06543732,United States,45.1
GHCND:US1NYBM0011,42.073508,-75.929583,United States,412.1
GHCND:USC00053147,39.1692,-108.7761,United States,1360
GHCND:US1MOCW0019,38.80515866,-91.94646299,United States,240.2
GHCND:US1PAMT0013,40.168486,-75.300545,United States,84.1
GHCND:US1NCRN0013,35.5645049,-79.777743,United States,223.7
GHCND:ASN00092119,-42.6831,147.8675,Australia,95
GHCND:US1AZCH0037,31.998847,-110.279666,United States,1085.4
GHCND:US1PALH0009,40.559831,-75.530217,United States,137.5
GHCND:US1NVWH0105,39.532778,-119.922778,United States,1525.8
GHCND:US1NCDV0002,35.941354,-80.413365,United States,254.5
GHCND:US1NJMS0021,40.845063,-74.596946,United States,312.4
GHCND:US1TXHDS025,31.36449,-105.93551,United States,1084.8
GHCND:US1CASC0032,37.31851,-121.960763,United States,42.4
GHCND:US1NJBT0009,40.0253,-74.9318,United States,11.3
GHCND:US1MIWY0014,42.383515,-83.377868,United States,199.9
GHCND:US1INWS0008,38.4843,-86.1742,United States,235
GHCND:ASN00072156,-35.9333,147.7167,Australia,0
GHCND:US1NMSR0013,33.0334,-106.9814,United States,1409.7
GHCND:US1NJUN0016,40.667582,-74.282238,United States,25
GHCND:US1CACC0027,37.95877285,-122.0555989,United States,13.1
GHCND:CA006143090,43.55,-80.2167,Canada,325
GHCND:US1NCWT0059,36.227065,-81.614668,United States,988.5
GHCND:US1OHSN0003,41.0589354,-83.1126723,United States,254.2
GHCND:US1NMBR0347,35.184446,-106.324042,United States,2008.9
GHCND:US1NVLY0015,39.28898,-119.52111,United States,1311.2
GHCND:US1MDTB0004,38.782,-76.2115,United States,0
GHCND:CA1ON000413,42.616244,-81.470755,Canada,213.1
GHCND:US1MOPH0012,37.9508181,-91.7002567,United States,321
GHCND:CA1ON000159,42.659012,-81.479795,Canada,225.2
GHCND:US1INLG0004,41.617,-85.335,United States,284.1
GHCND:US1NMRA0009,36.2217,-106.238,United States,1815.1
GHCND:US1MAPL0001,42.189547,-70.866538,United States,35.7
GHCND:US1MNOT0015,46.6028,-95.79836667,United States,431.6
GHCND:US1MOSS0031,38.785275,-90.722038,United States,191.1
GHCND:ASN00009250,-31.9356,115.9639,Australia,20
GHCND:US1NCDS0024,36.00602,-80.159539,United States,259.4
GHCND:ASN00065109,-33.7631,148.2349,Australia,335
GHCND:US1PAFN0006,39.79757,-77.71996,United States,184.1
GHCND:US1ARLG0008,35.291564,-93.727158,United States,122.8
GHCND:US1INPT0095,41.4730948,-87.0611412,United States,242.6
GHCND:US1TXEP0021,31.554367,-106.18675,United States,1100.9
GHCND:US1INKS0006,41.322041,-85.758763,United States,260
GHCND:US1ARBT0027,36.42505288,-94.53042068,United States,361.5
GHCND:US1WASJ0025,48.434385,-122.863604,United States,11.3
GHCND:SPE00156531,42.1392,1.0389,Spain,690
GHCND:US1MAHD0030,42.0837,-72.44895,United States,74.1
GHCND:US1CASR0044,34.05425,-117.0383,United States,846.1
GHCND:US1VASF0008,38.473662,-77.474274,United States,76.5
GHCND:US1NJMS0050,40.77978,-74.5854,United States,160
GHCND:CA1ON000464,42.453283,-82.082419,Canada,183.2
GHCND:US1CAHM0030,40.077475,-123.823935,United States,126.5
GHCND:ASN00094200,-42.9664,147.1472,Australia,395
GHCND:USC00031419,35.6111,-92.5614,United States,350.5
GHCND:US1KYJF0047,38.24008942,-85.5586853,United States,214.9
GHCND:US1RIWS0004,41.630469,-71.434015,United States,24.7
GHCND:US1NMTR0005,34.985467,-106.202333,United States,2055
GHCND:US1CTHR0051,41.682254,-72.667986,United States,29.6
GHCND:US1NCCD0005,35.92237,-81.51586,United States,349
GHCND:GME00124954,48.0767,10.9144,Germany,621
GHCND:US1ARMT0004,34.4938,-93.908,United States,307.2
GHCND:USC00305676,42.3114,-78.9082,United States,606.6
GHCND:ASN00090181,-38.241,143.1393,Australia,195
GHCND:ASN00009977,-32.5219,115.7119,Australia,3
GHCND:CA006159123,44.1,-79.1667,Canada,325
GHCND:ASN00040806,-26.3664,152.8528,Australia,73.2
GHCND:US1NMLU0063,32.25689135,-107.753575,United States,1320.1
GHCND:US1MNCS0012,46.3496,-94.3612,United States,368.8
GHCND:US1NCAX0006,35.88681,-81.07442,United States,341.1
GHCND:US1OHDR0029,40.02254,-84.48868,United States,309.7
GHCND:US1NYWC0022,41.284795,-73.552794,United States,157.6
GHCND:US1INBL0012,40.4462,-85.3663,United States,271.9
GHCND:US1NMSF0088,35.713253,-105.948342,United States,2198.5
GHCND:US1CALA0007,34.180539,-118.649677,United States,272.5
GHCND:ASN00039343,-25.5378,151.32,Australia,201
GHCND:USC00283151,41.1129,-74.6112,United States,198.1
GHCND:US1AZCH0061,31.33790486,-109.5530026,United States,1212.5
GHCND:US1MDMG0114,39.007476,-77.026488,United States,87.5
GHCND:US1VAPW0013,38.68443298,-77.42987061,United States,86
GHCND:US1NCGL0022,35.9823,-79.9905,United States,256.6
GHCND:USC00048122,35.4867,-119.1458,United States,123.1
GHCND:USC00238609,37.7109,-91.1336,United States,391.7
GHCND:ASN00091320,-41.1297,147.3419,Australia,90
GHCND:US1CASD0004,33.270046,-117.266268,United States,76.8
GHCND:US1NYNG0032,43.0918,-78.6568,United States,178.9
GHCND:US1NYSY0012,42.498069,-76.871506,United States,281
GHCND:US1NMDA0257,32.24939,-106.82143,United States,1182.9
GHCND:US1NJPS0013,41.170455,-74.329297,United States,200.6
GHCND:ASN00109501,-32.938,116.024,Australia,484
GHCND:US1CTLT0028,42.009638,-73.256032,United States,253.9
GHCND:ASN00091289,-41.1508,147.8006,Australia,170
GHCND:US1ARBT0050,36.296719,-94.14241,United States,391.4
GHCND:US1CODL0013,38.88094,-107.85612,United States,1929.1
GHCND:US1ORJC0013,42.1943981,-122.7184665,United States,602.9
GHCND:US1OHAT0012,39.4067,-81.9657,United States,227.7
GHCND:US1MORL0005,39.586306,-91.401209,United States,197.5
GHCND:CA1ON000218,43.40382,-79.7999268,Canada,146.9
GHCND:ASN00040714,-28.0708,152.9272,Australia,44
GHCND:US1ARBT0028,36.4148,-94.1221,United States,376.4
GHCND:USC00150202,38.6182,-84.5889,United States,305.7
GHCND:CA1ON000754,42.281381,-82.873679,Canada,182.3
GHCND:US1PAMR0012,41.199416,-80.456453,United States,286.8
GHCND:ASN00056242,-29.7796,151.1121,Australia,582
GHCND:US1OHCB0008,40.756964,-80.929192,United States,361.5
GHCND:MXN00001106,21.95,-102.4667,Mexico,2058.9
GHCND:US1AZPM0254,31.95438766,-110.7743835,United States,1024.1
GHCND:US1AZCH0076,31.34465,-109.551799,United States,1215.8
GHCND:US1INPT0021,41.464495,-87.102642,United States,218.8
GHCND:GME00122158,48.5742,12.2589,Germany,490
GHCND:US1PACH0025,39.82053599,-75.8166604,United States,129.5
GHCND:US1ARBT0012,36.327549,-94.413031,United States,419.4
GHCND:US1MOCE0008,38.4848597,-92.4040888,United States,237.4
GHCND:US1INGR0037,40.60676,-85.62996,United States,0
GHCND:US1CASN0021,38.555132,-122.822721,United States,37.5
GHCND:US1INCK0020,38.34339,-85.684497,United States,158.8
GHCND:ASN00023137,-34.8685,138.5698,Australia,10
GHCND:CA1ON000019,43.7144012,-79.3567429,Canada,124.7
GHCND:CA001015630,48.8167,-123.7167,Canada,47
GHCND:US1INCW0003,38.324,-86.3379,United States,205.7
GHCND:US1ILSC0027,38.46589,-89.711299,United States,132.6
GHCND:US1KYHR0005,38.337,-84.4233,United States,270.1
GHCND:US1RIPR0020,41.87772712,-71.75134214,United States,204.2
GHCND:US1KYFR0011,38.274324,-84.932954,United States,272.5
GHCND:US1PALZ0018,41.3320096,-75.9631106,United States,377.3
GHCND:US1MSCP0005,32.005081,-90.289321,United States,114
GHCND:USW00054790,40.82167,-72.86889,United States,25
GHCND:US1INPT0106,41.402639,-87.210489,United States,232.9
GHCND:US1CASK0008,41.363911,-122.396942,United States,1192.1
GHCND:US1MDQA0012,39.00277778,-75.93027778,United States,11.6
GHCND:US1LAEB0060,30.4005,-91.0896,United States,9.4
GHCND:US1INCK0018,38.309792,-85.73601,United States,147.8
GHCND:US1NYER0085,42.985235,-78.486344,United States,251.2
GHCND:US1NJMC0061,40.350125,-74.640518,United States,41.5
GHCND:US1NCCD0021,35.79584122,-81.51965332,United States,350.8
GHCND:US1NCGL0061,36.189581,-79.869361,United States,263.7
GHCND:US1CAMD0003,39.00623,-123.408373,United States,323.4
GHCND:US1NMBR0313,35.149231,-106.576276,United States,1608.7
GHCND:US1CASA0045,38.6619,-121.300157,United States,52.7
GHCND:US1NCAS0012,36.5628,-81.58241,United States,1052.2
GHCND:US1MILV0015,42.481559,-84.003267,United States,277.4
GHCND:US1MOPH0023,38.0156,-91.5994,United States,317.3
GHCND:US1INFD0016,38.369774,-85.7849576,United States,160.6
GHCND:US1AZPM0091,31.890569,-110.931368,United States,890
GHCND:US1NJBT0037,39.9664,-74.8293,United States,12.2
GHCND:US1CASD0101,33.310784,-117.040908,United States,413.6
GHCND:US1CATY0037,40.7558,-123.0594,United States,481.3
GHCND:US1CATH0023,39.9442,-122.1017,United States,65.8
GHCND:US1NYBM0040,42.079591,-76.051015,United States,264.6
GHCND:USR0000NSAR,43.0078,-73.6511,United States,114.3
GHCND:USW00053003,35.1188,-107.8303,United States,1963.8
GHCND:USW00014753,42.2123,-71.1137,United States,190.5
GHCND:USW00003097,34.517,-106.2702,United States,1977.8
GHCND:USW00093057,35.16528,-107.90222,United States,1987.3
GHCND:US1MIKZ0018,42.2344,-85.6738,United States,289.6
GHCND:USW00003096,39.7608,-108.1268,United States,2301.2
GHCND:USW00094094,40.0822,-108.1996,United States,1756
GHCND:USC00153025,38.2196,-84.8336,United States,233.2
GHCND:US1RIBR0011,41.70591,-71.28509,United States,17.7
GHCND:USC00208972,42.4355,-83.783,United States,276.1
GHCND:US1PABK0027,40.459139,-75.326172,United States,157.9
GHCND:US1NMBR0366,35.166502,-106.5022747,United States,1833.1
GHCND:US1MDFR0035,39.5165154,-77.5737633,United States,224.9
GHCND:ASN00040950,-27.9292,152.8597,Australia,45
GHCND:MXN00099002,28.8,-110.5667,Mexico,388.6
GHCND:USC00308317,42.46083,-73.75,United States,86.9
GHCND:US1KYBN0001,38.932203,-84.807221,United States,246.6
GHCND:US1INDL0031,40.2615,-85.2272,United States,292.6
GHCND:USC00280331,39.7417,-74.72581,United States,14.9
GHCND:US1MNDS0005,45.96765,-95.6025,United States,422.5
GHCND:US1KYMD0003,38.19013,-86.36136,United States,132
GHCND:US1INPT0005,41.495016,-87.04084,United States,253
GHCND:US1NVWH0031,39.547997,-119.705151,United States,1342.9
GHCND:USC00041886,41.0894,-122.7086,United States,762.9
GHCND:US1NCRW0008,35.58107758,-80.69611359,United States,268.8
GHCND:CA1ON000010,43.2090988,-80.9822693,Canada,356
GHCND:US1ORCY0010,42.031919,-124.251466,United States,20.4
GHCND:US1NMOT0061,32.969631,-106.017355,United States,1325.6
GHCND:US1MILP0006,42.9238244,-83.1008132,United States,295
GHCND:US1MDTB0018,38.752842,-76.056094,United States,13.1
GHCND:ASN00073149,-33.7401,147.5149,Australia,207
GHCND:USC00202375,42.9378,-85.6131,United States,227.4
GHCND:US1NYDT0029,41.61955,-73.91306667,United States,51.5
GHCND:ASN00068215,-34.4167,150.1967,Australia,0
GHCND:US1ILCK0122,41.927212,-87.651672,United States,187.1
GHCND:US1NJSM0050,40.609153,-74.699205,United States,58.2
GHCND:US1MDBL0013,39.536221,-76.544552,United States,149
GHCND:US1CANP0010,38.301005,-122.262764,United States,66.8
GHCND:CA006134F10,42.5667,-80.05,Canada,175
GHCND:US1CAHM0073,40.317157,-124.281608,United States,28
GHCND:US1MAWR0075,42.204,-72.2354,United States,214
GHCND:US1CARV0038,33.94062,-117.296415,United States,468.2
GHCND:USC00303088,43.32418,-76.41849,United States,102.4
GHCND:US1CTLT0020,41.75488,-73.39284,United States,331.6
GHCND:US1MIBR0007,42.670723,-85.344754,United States,243.2
GHCND:US1LAOC0002,32.556366,-92.198873,United States,42.1
GHCND:US1MDMG0029,39.249314,-77.243724,United States,207.9
GHCND:USC00204662,43.00806,-83.375,United States,271.3
GHCND:US1VAFXC001,38.8679,-77.2999,United States,109.7
GHCND:US1ILJK0020,37.782259,-89.351572,United States,127.7
GHCND:US1MIRS0001,44.354296,-84.683218,United States,346.3
GHCND:US1CALA0006,34.01655,-118.459786,United States,45.1
GHCND:SPE00156567,41.9878,1.5117,Spain,691
GHCND:CA006158355,43.6667,-79.4,Canada,113
GHCND:US1MOFR0018,38.5685113,-91.0280864,United States,164.3
GHCND:US1MIKN0049,42.826924,-85.538196,United States,246.3
GHCND:ASN00091351,-41.3753,146.8169,Australia,217
GHCND:US1NJHN0045,40.714045,-74.963436,United States,159.1
GHCND:US1CARV0039,33.997904,-116.986338,United States,1086
GHCND:US1COGN0041,38.5402,-106.9238,United States,2345.1
GHCND:US1NJWR0032,40.75407,-74.98118,United States,138.1
GHCND:US1CATH0050,40.29921,-122.36839,United States,210.3
GHCND:US1MOMS0003,38.00780487,-92.08102417,United States,306.6
GHCND:US1PAYR0034,40.057395,-76.788603,United States,128
GHCND:US1WASJ0011,48.5336,-123.04905,United States,48.5
GHCND:US1PADP0032,40.40501,-76.91488,United States,140.5
GHCND:US1COGN0020,38.8722,-106.978,United States,2706
GHCND:US1CAHM0070,40.2002,-124.1053,United States,425.2
GHCND:US1NMDA0323,32.62157502,-107.0297132,United States,1225.6
GHCND:US1NJWR0016,40.85975,-75.030389,United States,174
GHCND:US1NMDA0187,32.298211,-106.733353,United States,1266.1
GHCND:US1OHCK0011,39.976051,-83.780134,United States,319.1
GHCND:US1ARSR0006,35.721544,-92.696447,United States,529.1
GHCND:US1CASJ0004,38.038121,-121.254655,United States,10.7
GHCND:US1NMCB0003,35.167891,-107.826867,United States,1983
GHCND:US1AZPM0087,32.200881,-110.769093,United States,880
GHCND:US1PACH0049,40.006072,-75.600998,United States,162.2
GHCND:CA1ON000542,42.8702869,-79.812369,Canada,200.3
GHCND:US1INHY0025,39.939468,-85.419361,United States,321.9
GHCND:US1NYDT0016,41.54837036,-73.8802948,United States,106.4
GHCND:US1PALH0005,40.647393,-75.650513,United States,143.9
GHCND:USC00201238,43.048,-82.9238,United States,248.4
GHCND:US1INGN0011,38.989886,-86.849378,United States,165.5
GHCND:ASN00023896,-34.8757,138.7103,Australia,200
GHCND:CA1ON000570,42.960992,-80.534339,Canada,250.2
GHCND:US1OHMM0011,39.99181,-84.20953,United States,271
GHCND:US1NCFR0034,36.15277,-80.22146,United States,303
GHCND:US1CADN0003,41.9293,-124.149935,United States,20.7
GHCND:US1NMVL0025,34.573079,-106.651801,United States,1546.3
GHCND:US1OHGR0011,39.72026,-83.750049,United States,324.6
GHCND:US1MOBN0025,38.91722,-92.4705,United States,209.1
GHCND:ASN00064050,-31.646,149.6209,Australia,460
GHCND:US1INEL0008,41.56551,-85.9933,United States,256
GHCND:US1MDHW0007,39.154261,-76.82813,United States,96.9
GHCND:US1INKS0003,41.253918,-85.856568,United States,249
GHCND:US1VAMN0009,37.224713,-80.518728,United States,575.5
GHCND:US1NMSF0074,35.646277,-105.975392,United States,2058.9
GHCND:US1CAST0008,36.919783,-121.345906,United States,99.1
GHCND:USC00155650,38.0286,-85.5619,United States,251.5
GHCND:US1ARSB0001,35.25756,-94.30892,United States,167.6
GHCND:ASN00070346,-35.1889,149.251,Australia,655
GHCND:US1PAMT0048,40.008191,-75.300315,United States,98.8
GHCND:US1NJOC0078,39.97405,-74.14299,United States,12.5
GHCND:US1MNPP0014,45.61806,-95.49607,United States,353.9
GHCND:US1LAEB0045,30.6564754,-91.1667897,United States,32
GHCND:US1NYAB0028,42.724277,-73.757013,United States,120.1
GHCND:US1INPT0030,41.43203,-87.14497,United States,234.1
GHCND:US1WASG0025,48.416553,-122.616071,United States,19.8
GHCND:US1PABK0004,40.41047,-75.442714,United States,175
GHCND:US1MIKN0056,43.0309985,-85.6126616,United States,220.1
GHCND:US1OHHM0038,39.126391,-84.429922,United States,190.8
GHCND:US1MIRS0003,44.30331,-84.7597,United States,367.6
GHCND:US1MOHW0002,38.995854,-92.609725,United States,231
GHCND:US1CAMT0017,36.85,-121.65,United States,104.9
GHCND:US1NCRN0026,35.661222,-79.877303,United States,184.7
GHCND:US1COME0101,39.103509,-108.669822,United States,1408.2
GHCND:US1CASM0002,37.420419,-122.394508,United States,103.3
GHCND:ASN00069148,-35.9004,150.1437,Australia,4
GHCND:US1AZAP0002,32.347141,-110.999648,United States,748.9
GHCND:US1NMDA0111,32.337814,-106.794148,United States,1186.9
GHCND:US1ORJC0022,42.7144,-122.57028,United States,697.7
GHCND:US1MNKD0013,45.264839,-95.063143,United States,349
GHCND:CA1BC000004,49.86541,-119.604055,Canada,625.4
GHCND:US1NMBR0265,35.11939,-106.67175,United States,1516.4
GHCND:US1NMSC0024,33.51770833,-107.1637583,United States,1423.7
GHCND:US1MOPH0033,37.90376667,-91.78125,United States,319.4
GHCND:US1ILWS0001,38.347104,-89.178231,United States,163.1
GHCND:US1CAFR0027,36.795899,-119.598307,United States,119.5
GHCND:US1NMBR0012,35.0829,-106.5814,United States,1606.9
GHCND:ASN00060116,-31.4367,152.4633,Australia,0
GHCND:US1NMDA0329,32.291532,-106.646941,United States,1394.8
GHCND:US1NYOG0013,43.18729,-76.0946,United States,118.9
GHCND:US1MNOT0023,46.5916161,-95.563233,United States,415.4
GHCND:US1MAPL0004,41.985501,-70.781342,United States,31.4
GHCND:US1CARV0027,33.583847,-117.140439,United States,399.9
GHCND:US1CASD0157,32.735752,-117.048259,United States,135.3
GHCND:US1MDWH0001,39.608945,-77.769369,United States,175
GHCND:US1MSHD0014,32.176468,-90.286755,United States,88.4
GHCND:US1NMBR0057,35.099363,-106.326936,United States,2086.1
GHCND:US1NYMR0008,43.365233,-77.988276,United States,79.9
GHCND:US1CASA0028,38.625921,-121.39381,United States,20.1
GHCND:CA1ON000798,42.925683,-80.984325,Canada,295.4
GHCND:US1MNSR0032,45.57548,-94.17583,United States,318.2
GHCND:ASN00040026,-25.5997,152.5925,Australia,22
GHCND:US1NJSM0005,40.626247,-74.653535,United States,32.9
GHCND:US1INLW0012,38.84108307,-86.49903195,United States,203.9
GHCND:US1MNSR0004,45.5668397,-94.2365777,United States,319.7
GHCND:US1ILFK0006,38.02363968,-88.906841,United States,139.3
GHCND:US1PAMT0053,40.219886,-75.465467,United States,63.7
GHCND:ASN00058208,-28.8775,153.052,Australia,20.9
GHCND:US1NMDA0118,32.341594,-106.782686,United States,1208.8
GHCND:ASN00089111,-37.5174,143.7791,Australia,441
GHCND:US1INOW0009,39.185767,-86.778233,United States,235.9
GHCND:US1OHGG0011,41.7123829,-81.038718,United States,306
GHCND:US1NJMN0051,40.367059,-73.997934,United States,14.9
GHCND:US1VAMN0011,37.234632,-80.458121,United States,614.2
GHCND:US1MOCW0012,38.6783667,-92.1014472,United States,256
GHCND:US1OHHD0022,40.693317,-83.790268,United States,297.5
GHCND:US1PAMN0011,40.903357,-75.373678,United States,334.4
GHCND:ASN00010800,-33.3225,117.2078,Australia,335
GHCND:GME00131818,47.8356,12.6564,Germany,721
GHCND:US1MIMK0001,44.265899,-85.255264,United States,374.3
GHCND:US1KYWF0009,38.1515,-84.6762,United States,260
GHCND:US1NVWH0092,39.49897,-119.855889,United States,1444.1
GHCND:US1WAWC0037,48.894315,-122.443209,United States,32.6
GHCND:US1RIPR0035,41.977502,-71.388456,United States,45.4
GHCND:US1NMLU0040,32.259998,-107.740067,United States,1315.8
GHCND:ASN00061385,-33.0789,151.3403,Australia,390
GHCND:US1ARYL0004,35.07586218,-93.7177556,United States,152.4
GHCND:US1OHWR0026,39.408835,-84.006056,United States,281.9
GHCND:US1NCYN0001,35.981972,-82.285219,United States,792.2
GHCND:US1SCYR0045,34.98744202,-81.04850769,United States,198.7
GHCND:USC00047298,40.5194,-122.2988,United States,153
GHCND:CA1BC000052,49.28002,-122.786313,Canada,29.3
GHCND:USW00094732,40.07892,-75.01341,United States,32
GHCND:US1NMRA0001,36.147789,-105.987494,United States,1751.1
GHCND:US1INPT0107,41.479886,-87.034948,United States,249.6
GHCND:US1COME0170,39.108223,-108.355,United States,1442.3
GHCND:US1INHR0003,38.2087,-86.1122,United States,196.9
GHCND:US1MIKN0043,42.82526229,-85.58941841,United States,232.3
GHCND:US1VAFQ0022,38.72668,-77.813964,United States,168.6
GHCND:US1CASD0193,33.0045,-117.2503,United States,68.6
GHCND:GME00126766,50.8289,6.6592,Germany,111
GHCND:US1OHHM0056,39.206787,-84.545949,United States,266.7
GHCND:US1NYOG0016,42.79706,-76.10539,United States,381.6
GHCND:US1CODL0051,38.78369,-107.78231,United States,1671.5
GHCND:US1NYSF0079,40.83043289,-73.22853088,United States,13.4
GHCND:US1CASN0093,38.3124,-123.01767,United States,68.9
GHCND:US1AZSC0021,31.447404,-111.00205,United States,1105.8
GHCND:US1CASZ0044,37.097643,-122.048703,United States,326.4
GHCND:US1MAPL0012,42.041644,-70.980847,United States,24.1
GHCND:US1COME0097,39.083936,-108.56357,United States,1410.3
GHCND:US1NMOT0046,33.011144,-105.980788,United States,1380.1
GHCND:ASN00092123,-40.7292,148.125,Australia,15
GHCND:US1NYER0060,42.776573,-78.844437,United States,192
GHCND:MXN00011059,21.3,-101.1667,Mexico,1829.7
GHCND:US1ARGL0011,34.44415972,-92.98111573,United States,116.7
GHCND:ASN00023898,-35.2564,138.4836,Australia,42
GHCND:CA006137937,41.8333,-82.4667,Canada,195
GHCND:US1INSJ0064,41.66491248,-86.13080218,United States,221
GHCND:US1CAMR0032,38.004735,-122.523977,United States,4.6
GHCND:US1INEL0036,41.642487,-86.04149,United States,226.2
GHCND:US1OHBT0031,39.396477,-84.38339,United States,253
GHCND:US1INCK0016,38.414177,-85.929889,United States,268.2
GHCND:US1NVWH0097,39.531,-119.911,United States,1536.8
GHCND:US1INDV0006,38.621697,-87.182917,United States,143
GHCND:US1NCGS0024,35.24213791,-81.19103241,United States,238.4
GHCND:US1RIWS0026,41.38721868,-71.62161581,United States,12.8
GHCND:US1COOR0019,38.21978,-107.80634,United States,2383.8
GHCND:US1MDMG0069,39.25341,-77.195779,United States,176.8
GHCND:US1MOTY0011,36.514874,-93.255976,United States,410.9
GHCND:US1AZPM0082,32.22607,-110.79839,United States,805.9
GHCND:US1COME0086,39.10013617,-108.5761964,United States,1404.5
GHCND:US1INWY0012,41.246772,-85.614819,United States,274
GHCND:US1INLK0111,41.51636,-87.26671,United States,0
GHCND:US1TNCT0002,36.193535,-82.200802,United States,829.7
GHCND:USR0000NBUS,35.7694,-82.1917,United States,881.5
GHCND:US1ILSC0031,38.6011,-89.9166,United States,162.8
GHCND:US1NYCN0016,42.287202,-75.536347,United States,348.7
GHCND:US1AZPM0269,31.868254,-111.009819,United States,902.5
GHCND:UPM00033662,48.57,27.45,Ukraine,0
GHCND:US1CTMD0005,41.2965,-72.44133333,United States,10.7
GHCND:US1COGN0049,38.424862,-106.619176,United States,2479.2
GHCND:US1NMBR0052,35.128296,-106.573745,United States,1609
GHCND:US1COME0013,39.0508,-108.5368,United States,1420.1
GHCND:US1MIBR0009,42.450664,-85.537907,United States,278.3
GHCND:US1MIMG0014,43.19172916,-86.15858117,United States,196.3
GHCND:US1ARSL0001,34.740505,-92.550264,United States,160
GHCND:US1MDBL0030,39.27497,-76.76673,United States,139
GHCND:US1CASC0003,37.364707,-122.004155,United States,25.9
GHCND:US1PAAD0054,39.9209,-77.4031,United States,354.5
GHCND:US1PADL0013,39.942904,-75.277385,United States,42.4
GHCND:US1NJAT0001,39.54826,-74.867069,United States,31.4
GHCND:ASN00009570,-34.0183,115.8339,Australia,260
GHCND:US1CAHM0001,40.880915,-124.06924,United States,128
GHCND:US1COME0136,39.24082,-108.1538,United States,1708.7
GHCND:ASN00040910,-27.6294,152.7114,Australia,27
GHCND:US1NMBR0337,35.154616,-106.716157,United States,1580.1
GHCND:US1NYON0018,42.840972,-77.225832,United States,281
GHCND:US1PANH0020,40.64775,-75.40261,United States,111.3
GHCND:US1NCRN0002,35.889639,-79.952122,United States,237.1
GHCND:US1CASN0080,38.377824,-122.534275,United States,102.7
GHCND:US1INFD0023,38.343234,-85.895055,United States,276.1
GHCND:US1COGF0071,39.58854675,-107.6739807,United States,1838.9
GHCND:US1AZPM0315,32.165545,-111.126018,United States,751.3
GHCND:US1CTFR0043,41.370325,-73.401363,United States,158.8
GHCND:US1OHHD0006,40.689452,-83.54724,United States,287.4
GHCND:US1ILMD0038,38.737689,-89.848719,United States,146.6
GHCND:US1CAVT0001,34.17716,-118.8984,United States,210.9
GHCND:CA1BC000054,49.220495,-122.96909,Canada,136.2
GHCND:US1NYCQ0019,42.21273422,-79.75546265,United States,392.6
GHCND:US1OHPY0001,39.726123,-82.204532,United States,274.3
GHCND:US1NCML0007,36.02,-82.12,United States,826.9
GHCND:US1ARCR0011,36.3778603,-93.3696173,United States,348.1
GHCND:CA1ON000006,42.361082,-82.244725,Canada,180.1
GHCND:USW00004847,41.86778,-84.07944,United States,242.6
GHCND:US1CANV0051,39.349789,-120.199271,United States,1977.2
GHCND:US1PAMT0064,40.130489,-75.383888,United States,58.2
GHCND:CA1ON000587,42.458148,-82.065962,Canada,185.6
GHCND:US1PAPH0001,40.073149,-75.159611,United States,104.9
GHCND:USS0006K46S,39.26,-106.63,United States,3081.5
GHCND:US1PACLM007,40.992886,-76.415026,United States,284.1
GHCND:ASN00079103,-37.295,142.6039,Australia,1150
GHCND:US1ORCY0012,42.125148,-124.321067,United States,273.7
GHCND:USC00363293,39.8255,-78.83,United States,485.9
GHCND:US1NMBR0044,35.0897,-106.5311,United States,1669.1
GHCND:US1WASG0021,48.504595,-122.650308,United States,61.9
GHCND:CA1ON000344,43.078755,-80.418141,Canada,255.4
GHCND:US1NMBR0262,35.116054,-106.684774,United States,1512.1
GHCND:ASN00082084,-36.7136,145.7603,Australia,330
GHCND:TUM00017203,38.867,40.5,Turkey,1177
GHCND:USC00026117,32.61,-110.7317,United States,1400.6
GHCND:US1INFD0009,38.362268,-85.98527,United States,244.8
GHCND:US1NYER0040,43.015273,-78.670499,United States,185.6
GHCND:USC00208249,44.7607,-85.6443,United States,193.5
GHCND:US1CASN0100,38.38229752,-122.5506897,United States,111.3
GHCND:US1MDPG0086,38.923607,-76.830406,United States,50.9
GHCND:US1NYOS0015,43.397711,-76.479583,United States,107
GHCND:USC00200228,42.2416,-83.6933,United States,253.6
GHCND:USC00055519,39.08907,-108.11827,United States,2356.1
GHCND:US1LAOC0012,32.54119,-92.1648,United States,27.1
GHCND:US1WVLW0001,38.989,-80.6772,United States,285.3
GHCND:US1MAWR0068,42.103727,-71.879391,United States,147.8
GHCND:US1INSN0019,41.697114,-85.062595,United States,304.2
GHCND:US1NJGL0043,39.740171,-75.222997,United States,22.9
GHCND:US1AZPM0241,31.810302,-111.015512,United States,911.7
GHCND:US1VAWH0007,36.8598011,-81.8950015,United States,519.4
GHCND:ASN00008312,-28.4928,114.7167,Australia,200
GHCND:US1WVCB0002,38.405967,-82.381274,United States,178.6
GHCND:US1CAAL0025,37.89471,-122.29646,United States,16.8
GHCND:US1NMOT0044,33.016244,-105.853919,United States,1861.1
GHCND:US1MODT0012,37.654281,-91.526961,United States,356.9
GHCND:US1NMDA0117,32.2786,-106.727,United States,1243.9
GHCND:US1OHMY0033,39.708262,-84.404082,United States,274.9
GHCND:US1NYER0008,42.956594,-78.478302,United States,253.6
GHCND:US1NJBT0006,39.971632,-74.934302,United States,23.8
GHCND:US1WASN0069,48.245,-122.34,United States,39.6
GHCND:US1INMD0003,40.167983,-85.632495,United States,270.1
GHCND:US1COEG0008,39.7332,-106.6806,United States,2201.9
GHCND:US1PAAD0034,39.99796,-77.21215,United States,243.5
GHCND:USR0000CPNN,36.4708,-121.1472,United States,402.9
GHCND:US1NJUN0036,40.626055,-74.289674,United States,14.3
GHCND:US1INPT0026,41.56453,-87.061314,United States,206
GHCND:US1NMGR0004,32.823,-108.004,United States,1969.9
GHCND:US1OHPT0007,41.2113263,-81.2133347,United States,338.6
GHCND:US1CASD0128,33.122695,-117.227795,United States,178.9
GHCND:US1NMLA0003,35.0199,-106.2111,United States,2065
GHCND:US1NYNS0027,40.839167,-73.68025,United States,52.1
GHCND:USC00296912,35.33417,-106.44167,United States,1734.3
GHCND:US1NCWT0051,36.224063,-81.782648,United States,849.5
GHCND:US1MIKN0109,42.955757,-85.626862,United States,228
GHCND:US1WVDD0003,39.353324,-80.692627,United States,258.5
GHCND:US1MOSL0027,38.6008319,-90.554759,United States,199
GHCND:CA1ON000525,43.13734,-80.736889,Canada,311.2
GHCND:US1NMDA0012,32.2829,-106.7876,United States,1182.9
GHCND:CA001102255,49.4,-123.2,Canada,953
GHCND:US1MOBY0025,36.61445,-93.83634,United States,372.8
GHCND:US1NYMR0065,43.02539,-77.75963,United States,180.4
GHCND:USS0021A01S,48.88,-121.26,United States,1106.4
GHCND:US1CASL0018,35.3021431,-120.6813278,United States,98.8
GHCND:US1NMSM0025,35.42681,-105.549466,United States,2008
GHCND:US1CASN0067,38.40664,-122.84067,United States,64.9
GHCND:US1INOR0021,38.557,-86.4456,United States,191.7
GHCND:US1OHHM0035,39.28283,-84.77393,United States,244.4
GHCND:US1MIWS0032,42.325602,-83.622179,United States,254.2
GHCND:US1CASH0014,40.6284,-122.3577,United States,187.1
GHCND:USS0006L14S,38.99,-106.75,United States,3243.1
GHCND:ASN00040892,-25.9586,152.5753,Australia,330
GHCND:US1CASD0184,33.10629,-117.1037,United States,201.8
GHCND:US1NMDA0370,32.25983,-106.83824,United States,1202.4
GHCND:ASN00091348,-41.1131,147.0967,Australia,70
GHCND:US1TXEP0070,31.89571381,-106.6196594,United States,1148.2
GHCND:ASN00009831,-34.9267,117.8731,Australia,30
GHCND:US1ARCW0010,35.126667,-92.918333,United States,276.5
GHCND:SPE00156549,42.1069,1.8267,Spain,1167
GHCND:US1RIWS0062,41.54113,-71.63529,United States,108.5
GHCND:US1NYSF0084,40.88533,-73.06694,United States,31.1
GHCND:US1MDTB0003,38.883746,-75.986019,United States,15.8
GHCND:US1TXEP0016,31.9362,-106.445,United States,1257.9
GHCND:US1CASU0005,39.159623,-121.75111,United States,22.3
GHCND:US1MNSR0015,45.582252,-94.189636,United States,313.9
GHCND:US1COME0024,39.263019,-108.931904,United States,1408.2
GHCND:US1NCAS0019,36.33192444,-81.53809357,United States,938.5
GHCND:US1INMN0007,39.208272,-86.630458,United States,253.9
GHCND:US1MOFSA183,38.7956,-90.5967,United States,160
GHCND:US1OHWR0039,39.57476,-84.2434,United States,264.6
GHCND:US1KYCB0010,39.0347,-84.4751,United States,259.1
GHCND:US1NYNS0028,40.66785431,-73.5549469,United States,6.7
GHCND:US1SCYR0061,35.141532,-81.071804,United States,182.6
GHCND:US1NJCD0006,39.40869,-75.34721,United States,3.4
GHCND:US1NJBT0005,39.83149,-74.808313,United States,38.7
GHCND:US1AZPM0264,32.3407,-110.9385,United States,867.8
GHCND:US1ARWS0035,35.93135,-94.18274,United States,406.3
GHCND:US1INPT0027,41.595978,-87.060647,United States,199
GHCND:US1NJCN0026,39.625926,-74.864721,United States,36.9
GHCND:US1VTBN0013,42.93714,-73.24389,United States,217.6
GHCND:US1INSH0004,39.4944,-85.9041,United States,226.5
GHCND:US1CAMP0004,37.415248,-120.099768,United States,357.2
GHCND:US1CTTL0005,41.9452997,-72.3801722,United States,213.1
GHCND:US1CABT0017,39.79986111,-121.8914722,United States,58.2
GHCND:US1MDHR0014,39.70116,-76.49127,United States,221.9
GHCND:US1OHWR0035,39.440172,-84.145618,United States,277.1
GHCND:ASN00099024,-40.5117,148.1239,Australia,16
GHCND:US1MOCW0018,38.985188,-91.968177,United States,263.3
GHCND:US1OHHK0003,39.51305556,-82.54222222,United States,323.1
GHCND:US1MAFR0012,42.452175,-72.566109,United States,48.8
GHCND:US1MIWS0027,42.3142,-83.7752,United States,256.6
GHCND:US1AZPM0395,31.899316,-110.943505,United States,869.6
GHCND:US1NYST0016,42.14317,-77.05214,United States,278
GHCND:US1NMBR0194,35.045791,-106.497413,United States,1748.3
GHCND:ASN00021133,-33.7676,138.2182,Australia,109.1
GHCND:US1NCWT0034,36.2774,-81.6465,United States,986.9
GHCND:US1NMVL0026,34.672046,-106.7712899,United States,1468.5
GHCND:US1OHDR0013,40.277741,-84.580482,United States,321.9
GHCND:US1NMOT0034,33.072265,-106.021169,United States,1373.1
GHCND:US1NMBR0038,35.1332,-106.4879,United States,1883.7
GHCND:US1INOR0013,38.535466,-86.461869,United States,246.9
GHCND:US1INMN0024,39.174466,-86.530299,United States,249.9
GHCND:ASN00055333,-31.1171,150.9135,Australia,410
GHCND:US1CABT0003,39.7339295,-121.760442,United States,114.3
GHCND:US1MDPG0010,39.059577,-76.846216,United States,68
GHCND:CA1ON000684,43.40502,-80.28075,Canada,324.9
GHCND:US1NYCM0004,42.016667,-76.85,United States,454.2
GHCND:US1MABA0014,41.647887,-70.622947,United States,2.4
GHCND:US1MNOT0009,46.4393,-95.5887,United States,407.5
GHCND:ASN00009266,-31.0697,115.9581,Australia,205
GHCND:US1WAOK0020,48.551951,-120.190472,United States,633.7
GHCND:ASN00085304,-37.4967,146.8575,Australia,1559
GHCND:ASN00040882,-28.1653,153.2161,Australia,152
GHCND:US1NYDT0038,41.76351,-73.87253,United States,137.5
GHCND:US1WASG0024,48.41298,-122.324868,United States,54.6
GHCND:US1NYAL0007,42.12150192,-77.95336151,United States,452
GHCND:ASN00082158,-36.7478,146.5362,Australia,0
GHCND:ASN00060140,-31.4458,151.7301,Australia,1020
GHCND:US1MOFR0015,38.4956,-90.9988,United States,199.9
GHCND:US1AZPM0064,32.266233,-110.8477,United States,752.6
GHCND:US1NYSF0074,40.747171,-73.19658,United States,7.9
GHCND:US1PACH0015,40.1692199,-75.5509954,United States,64.6
GHCND:US1VAFD0005,39.224056,-78.103917,United States,189
GHCND:ASN00009264,-31.7078,115.7242,Australia,20
GHCND:US1NYWN0020,43.260442,-77.348831,United States,108.2
GHCND:US1KYHY0007,38.3515,-85.1555,United States,263.7
GHCND:US1MOBN0028,39.11081311,-92.45153348,United States,231
GHCND:US1MAHD0026,42.152898,-72.249478,United States,168.2
GHCND:US1PACH0027,39.84457,-75.63856,United States,107
GHCND:US1CALA0038,33.776585,-118.146667,United States,14.6
GHCND:US1CTHR0012,41.62278,-72.476474,United States,170.7
GHCND:US1NJSS0060,41.16332,-74.45938,United States,401.7
GHCND:US1INMN0023,39.2319,-86.6315,United States,238
GHCND:US1TXEP0072,31.808957,-106.452469,United States,1210.7
GHCND:US1AZPM0040,32.088098,-110.69511,United States,966.8
GHCND:US1NJSM0049,40.58161545,-74.66735077,United States,32.9
GHCND:US1MAMD0111,42.41272,-71.12737,United States,20.4
GHCND:MXN00032173,22.9833,-102.8333,Mexico,2245.8
GHCND:US1KYHR0001,38.445552,-84.16146,United States,225.2
GHCND:US1MINW0007,43.591,-85.798,United States,294.7
GHCND:CA1ON000353,42.589449,-80.509131,Canada,171.3
GHCND:US1NYMR0055,42.9700669,-77.5657322,United States,199
GHCND:US1MDHW0020,39.284564,-76.884696,United States,141.4
GHCND:US1NJMD0082,40.5419,-74.35374,United States,32.9
GHCND:US1INJY0011,40.49412556,-85.15280306,United States,268.5
GHCND:US1INLG0010,41.613758,-85.32881,United States,290.5
GHCND:US1WVFY0001,38.06,-81.11,United States,519.1
GHCND:USC00202376,44.36694,-84.68917,United States,349.6
GHCND:CA1ON000611,42.31429,-83.01078,Canada,182.9
GHCND:ASN00041090,-26.5392,151.1347,Australia,393
GHCND:US1WAIS0002,48.096259,-122.572031,United States,51.8
GHCND:USW00094871,42.1256,-86.4284,United States,196
GHCND:ASN00023885,-35.1586,138.5057,Australia,55
GHCND:USR0000NGAN,42.1,-77.1,United States,335.3
GHCND:US1MIBR0013,42.5917797,-85.3160631,United States,277.4
GHCND:USR0000JEBF,39.5,-74.5,United States,396.2
GHCND:US1NJMC0043,40.354941,-74.657362,United States,53.6
GHCND:US1MIOK0109,42.678772,-83.593618,United States,312.1
GHCND:US1CATH0039,40.0922546,-122.1110611,United States,71.6
GHCND:US1NCCB0010,35.35574,-80.65357,United States,187.8
GHCND:US1KYAN0001,37.9678,-84.8496,United States,239
GHCND:US1CACC0006,37.893714,-122.104351,United States,75.6
GHCND:ASN00063296,-33.9561,149.3233,Australia,430
GHCND:USS0020A41S,48.57,-120.78,United States,1197.9
GHCND:US1NMBR0149,35.17292786,-106.567337,United States,1625.5
GHCND:US1INSJ0059,41.71364,-86.234565,United States,223.1
GHCND:US1NMDA0334,32.273997,-106.777991,United States,1186.6
GHCND:US1COME0143,39.103533,-108.7002,United States,1453.6
GHCND:US1NJMS0075,40.7682,-74.45648,United States,83.8
GHCND:US1NMBR0221,34.972515,-106.330215,United States,2259.8
GHCND:US1MIKN0045,43.010509,-85.351775,United States,261.2
GHCND:US1NMBR0230,35.110553,-106.363319,United States,2014.7
GHCND:US1PALB0006,40.217697,-76.291689,United States,164
GHCND:US1NCSR0009,36.391475,-80.479685,United States,335.3
GHCND:US1KYHD0009,37.806795,-85.9524231,United States,229.5
GHCND:US1PAMT0047,40.1639,-75.232053,United States,75.3
GHCND:US1CAKN0009,34.8353207,-119.1631126,United States,1834
GHCND:US1VAGL0009,37.278313,-80.688841,United States,511.5
GHCND:GME00131962,50.5467,12.2867,Germany,465
GHCND:US1CASA0023,38.492779,-121.419475,United States,8.5
GHCND:US1OHMA0005,39.871408,-83.380597,United States,304.2
GHCND:ASN00040329,-27.42,152.4506,Australia,75
GHCND:US1NJSM0023,40.4511,-74.6699,United States,31.4
GHCND:USC00199193,42.0931,-72.8035,United States,131.1
GHCND:US1COLK0001,39.2573,-106.3173,United States,3037.9
GHCND:US1MDCL0003,38.94452,-75.885961,United States,18
GHCND:US1OHAZ0008,40.5761,-83.9149,United States,313
GHCND:US1INLK0006,41.40262,-87.232749,United States,230.1
GHCND:ASN00019112,-33.023,138.0698,Australia,42
GHCND:US1ARBT0013,36.4863,-94.2812,United States,360.6
GHCND:US1NJSM0045,40.56061935,-74.66494751,United States,26.5
GHCND:ASN00066168,-33.9289,150.9831,Australia,0
GHCND:US1COGF0002,39.5502,-107.768,United States,1709
GHCND:US1PAAD0028,39.7450496,-77.4533158,United States,289
GHCND:USR0000CCRR,40.0686,-121.5825,United States,1466.7
GHCND:US1CASD0047,32.604447,-117.050773,United States,61
GHCND:US1NCCV0030,35.276274,-81.618871,United States,239
GHCND:US1ARCF0010,35.43646,-94.348723,United States,126.8
GHCND:US1CTHR0050,41.74345,-72.68145,United States,26.2
GHCND:US1INHY0013,39.916282,-85.413283,United States,320.6
GHCND:US1NMSN0069,35.252987,-106.691524,United States,1664.8
GHCND:US1NMDA0184,32.350388,-106.782325,United States,1219.8
GHCND:US1NMBR0031,35.156174,-106.529335,United States,1725.8
GHCND:US1INDL0035,40.0781,-85.5518,United States,288.6
GHCND:US1MDPG0040,39.00932,-76.88762,United States,63.1
GHCND:USR0000CMIO,36.2314,-118.8689,United States,586.1
GHCND:USC00298087,35.54333,-105.92,United States,2078.7
GHCND:US1NMBR0104,35.067157,-106.70534,United States,1526.7
GHCND:ASN00009187,-32.0758,115.8469,Australia,30
GHCND:US1NJGL0041,39.6394,-74.9527,United States,31.4
GHCND:USW00053872,35.01694,-80.62056,United States,207
GHCND:US1CASD0182,32.72628,-117.02733,United States,132.6
GHCND:US1LAEB0047,30.38181,-91.137302,United States,12.5
GHCND:US1NYOS0003,43.443717,-76.40515,United States,139
GHCND:US1PAMF0001,40.455055,-77.819106,United States,253
GHCND:US1NMOT0021,32.919655,-105.935878,United States,1361.8
GHCND:ASN00068088,-35.0938,150.6228,Australia,9
GHCND:US1MIKZ0024,42.34267,-85.52409,United States,280.1
GHCND:US1NYSF0078,40.83394623,-73.3037262,United States,48.2
GHCND:US1CAHM0066,40.044697,-123.958954,United States,294.7
GHCND:ASN00063295,-33.6297,150.2803,Australia,1030
GHCND:US1COSM0013,38.1299,-108.3172,United States,2167.4
GHCND:US1INDV0011,38.663637,-87.0452,United States,159.1
GHCND:US1CTTL0040,41.78805,-72.33738,United States,171.9
GHCND:USS0021A36S,48.82,-121.93,United States,1514.9
GHCND:US1LAEB0027,30.4507,-91.0843,United States,25
GHCND:CA006155875,43.9167,-78.8833,Canada,140
GHCND:US1MDMG0099,39.1405,-77.0667,United States,163.1
GHCND:US1WAWC0018,48.687524,-122.481589,United States,360
GHCND:USC00301732,43.3426,-76.0006,United States,177.1
GHCND:US1MOPH0038,37.92842,-91.9789,United States,222.8
GHCND:US1DENC0068,39.742279,-75.668155,United States,62.2
GHCND:US1INPT0077,41.306196,-87.0648,United States,204.8
GHCND:US1KYWS0002,37.71183765,-85.22683409,United States,233.5
GHCND:US1OHCM0010,39.106,-84.2565,United States,251.8
GHCND:US1MAHD0028,42.106854,-72.721485,United States,67.1
GHCND:US1NMVL0042,34.589254,-106.823406,United States,1579.8
GHCND:CA1BC000006,48.6676559,-123.6529694,Canada,122.8
GHCND:US1NMSN0041,35.297342,-106.586775,United States,1561.8
GHCND:US1INPT0007,41.50245,-87.0456,United States,259.1
GHCND:ASN00023374,-34.2523,139.0183,Australia,341
GHCND:US1DENC0034,39.706609,-75.776054,United States,87.8
GHCND:US1CASC0048,37.1863692,-121.5461865,United States,799.8
GHCND:US1NJSM0028,40.72813,-74.59456,United States,211.8
GHCND:ASN00040555,-25.9714,152.8608,Australia,80
GHCND:US1MIOK0067,42.750317,-83.583771,United States,296.9
GHCND:US1PAWT0007,40.14534,-79.837594,United States,307.2
GHCND:USR0000CDNO,34.0092,-119.6542,United States,243.8
GHCND:US1MOMY0003,38.75262089,-91.61699452,United States,275.5
GHCND:ASN00021118,-33.2341,138.001,Australia,10
GHCND:US1PAPK0007,41.33,-74.95,United States,429.8
GHCND:US1LAOC0016,32.45182701,-92.3438912,United States,44.2
GHCND:US1MOCP0005,38.9598732,-92.74095154,United States,235.3
GHCND:US1MOSLC005,38.602216,-90.250133,United States,153.6
GHCND:US1MDPG0082,39.0557,-76.93194,United States,61.9
GHCND:US1CALK0010,38.825838,-122.722005,United States,766.6
GHCND:US1NMGR0003,32.773815,-108.022599,United States,1841
GHCND:US1SCYR0052,35.00953,-80.93908,United States,197.5
GHCND:US1CARV0050,33.61527778,-117.0911111,United States,433.4
GHCND:USC00057033,39.5572,-107.7261,United States,1667
GHCND:US1LAEB0054,30.428138,-91.024307,United States,11.6
GHCND:US1AZPM0404,31.796341,-111.045913,United States,962.9
GHCND:ASN00093061,-42.0531,147.3017,Australia,259
GHCND:ASN00040865,-28.0936,152.7158,Australia,225
GHCND:US1OHFL0009,41.652794,-84.250256,United States,220.4
GHCND:US1CASO0010,38.056247,-122.168771,United States,2.7
GHCND:US1NYDL0008,42.149568,-74.618855,United States,427
GHCND:US1WASG0053,48.51782,-121.756339,United States,63.7
GHCND:SPE00156594,41.1467,1.4181,Spain,2
GHCND:US1NMBR0270,34.9508,-106.313,United States,2285.4
GHCND:US1MDAA0054,39.02919,-76.67292,United States,46
GHCND:GME00122146,51.3342,7.3417,Germany,205
GHCND:US1NYCM0019,42.173443,-76.860366,United States,301.4
GHCND:US1PAYR0035,39.958,-76.57,United States,182
GHCND:US1MDMG0003,39.0372,-77.2075,United States,96.9
GHCND:US1OHHG0005,39.12766,-83.59733,United States,342
GHCND:US1DENC0055,39.7451973,-75.59422302,United States,32.9
GHCND:US1CASD0035,33.01838,-117.06664,United States,147.2
GHCND:US1CAVT0028,34.222724,-118.863737,United States,276.1
GHCND:US1MNDS0009,45.87828827,-95.38273621,United States,431.3
GHCND:US1KYHD0014,37.7731,-85.992,United States,229.8
GHCND:US1NCMK0026,35.229254,-80.84046,United States,229.2
GHCND:ASN00061400,-32.1315,150.3639,Australia,275
GHCND:ASN00023111,-34.6307,138.6467,Australia,30
GHCND:US1WVJF0005,39.319135,-77.8268,United States,144.5
GHCND:USC00443229,38.9038,-78.1821,United States,283.5
GHCND:US1INMD0035,40.107908,-85.656006,United States,273.1
GHCND:US1PALZ0026,41.150377,-75.906238,United States,415.1
GHCND:US1OHHM0037,39.08405,-84.32803,United States,262.7
GHCND:US1NJMS0016,40.969004,-74.370953,United States,262.4
GHCND:US1AZPM0281,32.327309,-111.107495,United States,704.4
GHCND:US1OHCK0009,39.88054657,-83.77159882,United States,322.2
GHCND:US1NJMD0062,40.45623,-74.241325,United States,7.6
GHCND:CA006142286,43.65,-80.4167,Canada,376
GHCND:US1NYMR0015,43.21615,-77.95253,United States,117.7
GHCND:US1CASD0164,32.7722,-116.998,United States,205.7
GHCND:CA1BC000048,49.258487,-123.128076,Canada,64.6
GHCND:US1VAFR0036,36.87401,-79.88904,United States,327.1
GHCND:US1NMLA0018,35.88612,-106.32833,United States,2262.5
GHCND:US1NYDT0005,41.587969,-73.892214,United States,70.4
GHCND:USC00225705,31.4218,-90.8798,United States,78.6
GHCND:US1NCWT0006,36.164823,-81.605514,United States,1178.1
GHCND:ASN00095068,-42.7561,146.8803,Australia,295
GHCND:US1NYYT0009,42.60417715,-77.30065428,United States,347.2
GHCND:US1NYSF0017,40.735077,-73.221241,United States,4.3
GHCND:US1MASF0010,42.4073,-71.0357,United States,32.3
GHCND:US1CAAL0016,37.76438904,-122.1386337,United States,120.4
GHCND:US1NJMS0031,40.91575839,-74.47581947,United States,237.7
GHCND:US1NCCB0011,35.401756,-80.634567,United States,209.1
GHCND:US1MIMB0057,42.52987289,-83.00346375,United States,186.5
GHCND:US1MNMR0004,45.9688628,-94.377201,United States,336.5
GHCND:US1NJMN0019,40.2274,-74.0127,United States,4.3
GHCND:US1NYCM0017,42.002183,-76.830849,United States,484
GHCND:US1NMSF0037,35.528,-105.836,United States,2072.6
GHCND:US1PALZ0023,41.070115,-75.798618,United States,409
GHCND:US1WASG0046,48.517054,-122.624551,United States,13.7
GHCND:US1ARBT0011,36.351317,-94.295267,United States,381
GHCND:US1NYSY0005,42.332641,-76.758061,United States,362.1
GHCND:US1MOCE0017,38.40768814,-92.34780121,United States,252.4
GHCND:US1LASL0006,30.521844,-92.06700957,United States,17.7
GHCND:US1PAAD0016,39.867028,-77.244747,United States,171.9
GHCND:US1NYQN0037,40.78003,-73.81034,United States,19.8
GHCND:US1INKS0063,41.21132,-85.80322,United States,260.6
GHCND:US1MDMG0033,39.193925,-77.040344,United States,102.1
GHCND:US1OHGR0006,39.6646069,-83.970709,United States,279.8
GHCND:US1NMSN0098,35.2672,-106.6612,United States,1640.7
GHCND:US1PADP0024,40.296335,-76.870949,United States,137.2
GHCND:US1ARGL0005,34.66419,-93.033819,United States,291.7
GHCND:US1CTNL0029,41.348651,-72.2376099,United States,47.2
GHCND:US1NMLU0074,31.93066,-108.16091,United States,1468.2
GHCND:US1NYST0023,42.3471,-77.474,United States,510.8
GHCND:USC00033360,36.18528,-93.68667,United States,456.3
GHCND:US1NJBG0023,41.01905,-74.233383,United States,149.4
GHCND:US1COGF0049,39.458153,-107.183879,United States,1987.6
GHCND:US1PAMT0040,40.116213,-75.184776,United States,63.4
GHCND:ASN00041550,-27.9856,151.2828,Australia,400
GHCND:US1INLK0071,41.55871,-87.473371,United States,186.8
GHCND:US1NJMS0020,40.77414614,-74.52218596,United States,171.3
GHCND:US1CTLT0022,41.51472,-73.43604,United States,176.5
GHCND:US1NJMN0022,40.1168,-74.0668,United States,29
GHCND:ASN00023038,-34.3583,138.29,Australia,9
GHCND:USR0000CVAY,34.4456,-117.8511,United States,1152.1
GHCND:US1ARFK0016,35.227748,-92.43243,United States,121.9
GHCND:US1PANH0013,40.698441,-75.33812,United States,120.7
GHCND:US1NJBT0052,39.9971,-74.7771999,United States,12.2
GHCND:US1NMGR0018,32.338,-106.771,United States,1225
GHCND:US1OHPT0017,41.14718,-81.390797,United States,322.5
GHCND:US1NVWH0167,39.490537,-119.843161,United States,895.8
GHCND:US1PABF0013,41.644665,-76.85027,United States,405.4
GHCND:US1MOJF0011,38.4159,-90.3804,United States,144.5
GHCND:US1CASR0049,34.43834305,-117.463707,United States,1117.1
GHCND:US1MABR0064,41.74899,-71.14913,United States,29.6
GHCND:USW00003177,33.12806,-117.27944,United States,100
GHCND:US1MNWD0007,46.4853,-95.1634,United States,418.2
GHCND:US1MICS0007,41.94859,-86.18734,United States,220.7
GHCND:US1NJMS0068,40.757081,-74.538356,United States,149
GHCND:US1NMSN0063,35.243217,-106.6491189,United States,1613.3
GHCND:US1DCDC0019,38.895768,-77.036975,United States,9.1
GHCND:US1LAAV0003,31.133801,-92.068648,United States,22.6
GHCND:US1NMOT0002,32.9576,-105.8398,United States,2026.9
GHCND:US1CALA0008,34.0786,-118.687,United States,207.9
GHCND:ASN00065106,-32.0358,148.6552,Australia,320
GHCND:US1CASZ0037,37.150578,-122.125565,United States,181.7
GHCND:US1ARCR0001,36.406111,-93.7375,United States,410.9
GHCND:US1COGN0065,39.075168,-107.20674,United States,2437.5
GHCND:US1CAOR0059,33.62662,-117.69937,United States,122.5
GHCND:USS0019L42S,38.4,-119.54,United States,2838.6
GHCND:US1LARP0003,30.993071,-92.591577,United States,45.1
GHCND:US1AZPM0294,32.306854,-111.098115,United States,744.6
GHCND:ASN00060147,-31.7361,152.3989,Australia,0
GHCND:US1PANH0012,40.646111,-75.39222,United States,109.1
GHCND:GME00102324,50.3608,6.8703,Germany,485
GHCND:US1NYSF0061,40.8916893,-73.38313293,United States,53.6
GHCND:US1NMSF0087,35.4646,-106.0464,United States,1868.7
GHCND:US1COEG0064,39.629962,-106.896464,United States,2043.7
GHCND:US1NMDA0190,32.22076171,-106.7483299,United States,1175.9
GHCND:US1INRP0006,39.29277778,-85.22083333,United States,297.5
GHCND:US1NYSF0077,40.828998,-73.16433,United States,31.1
GHCND:US1PAFY0009,39.922621,-79.71397,United States,327.4
GHCND:SPE00156486,41.5656,2.0692,Spain,258
GHCND:US1VAFX0076,38.978422,-77.346219,United States,135.6
GHCND:ASN00060146,-31.9572,152.585,Australia,10
GHCND:US1KYKN0017,38.955,-84.509,United States,264.9
GHCND:CA001102912,49.15,-122.55,Canada,76
GHCND:ASN00009746,-34.0281,115.1042,Australia,80
GHCND:US1INKS0056,41.25422,-85.83541,United States,258.5
GHCND:USC00298127,31.8727,-106.698,United States,1252.4
GHCND:US1MNSW0005,45.31338,-95.60851,United States,317.6
GHCND:US1KYKN0021,38.957704,-84.572065,United States,252.4
GHCND:ASN00091249,-40.7636,145.2908,Australia,5
GHCND:US1COOR0023,38.024487,-107.670471,United States,2375.9
GHCND:US1INHR0017,38.318231,-86.117004,United States,220.7
GHCND:US1CASK0002,41.665129,-122.62075,United States,895.2
GHCND:US1WVPT0011,38.536493,-81.931887,United States,181.1
GHCND:CA006156561,44.0667,-78.6333,Canada,373
GHCND:US1INLP0007,41.5904,-86.7343,United States,253.9
GHCND:US1NVWH0057,39.596303,-119.808643,United States,1585.3
GHCND:USW00053921,34.5467,-93.578,United States,214
GHCND:US1PACL0010,41.166937,-79.654686,United States,419.1
GHCND:US1PALH0019,40.631092,-75.41491,United States,105.2
GHCND:US1OHGR0026,39.6595,-83.9805,United States,278.6
GHCND:USR0000CHOO,41.0478,-123.6714,United States,114.3
GHCND:US1INEL0018,41.58219,-85.660284,United States,278
GHCND:US1PAAD0047,39.914709,-77.279277,United States,200.9
GHCND:US1INSJ0026,41.683294,-86.095364,United States,230.1
GHCND:ASN00068249,-34.9636,150.0967,Australia,533.4
GHCND:US1CASD0081,32.744104,-117.14963,United States,89.9
GHCND:US1COMT0040,38.368364,-108.964806,United States,1617.3
GHCND:USC00155280,37.6497,-86.4308,United States,129.5
GHCND:US1NJBG0029,41.032778,-74.244991,United States,73.8
GHCND:US1NJMS0063,40.88182831,-74.57941437,United States,264
GHCND:US1TXEP0010,31.844285,-106.456853,United States,1264
GHCND:US1RIPR0051,41.954402,-71.549446,United States,82.3
GHCND:US1NYER0015,42.873954,-78.644114,United States,215.5
GHCND:US1COGN0033,38.618254,-106.928359,United States,2398.2
GHCND:US1NCSR0012,36.384661,-80.476946,United States,330.4
GHCND:US1MIOW0007,43.017431,-86.219984,United States,188.4
GHCND:US1NYOS0008,43.3323,-76.26663,United States,140.2
GHCND:USC00361362,41.9301,-79.297,United States,454.2
GHCND:US1NYTM0001,42.6203,-76.493549,United States,331.9
GHCND:US1MDCL0010,38.8623,-75.9267,United States,11.9
GHCND:ASN00057032,-30.4829,152.3025,Australia,1278
GHCND:US1MSWR0001,32.3488,-90.8412,United States,79.6
GHCND:US1AZPM0394,31.8562,-110.9606,United States,897.3
GHCND:US1CAMD0007,39.158289,-123.224837,United States,227.4
GHCND:US1NMSF0039,35.650279,-105.943866,United States,2121.1
GHCND:USC00368361,41.8162,-80.4249,United States,306.3
GHCND:US1MAHS0006,42.35313,-72.69908,United States,118.3
GHCND:US1MNGR0012,46.09729667,-96.059116,United States,350.8
GHCND:US1VAMN0036,37.14504,-80.36082,United States,634.3
GHCND:US1NJOC0008,39.984741,-74.07261,United States,0.9
GHCND:US1OHCH0002,40.0903,-83.7576,United States,323.7
GHCND:US1NMBR0224,35.128527,-106.545562,United States,1668.8
GHCND:US1CACC0031,37.8911,-122.0811,United States,76.8
GHCND:US1MIKN0068,42.8612,-85.5731,United States,231.3
GHCND:ASN00020030,-33.3119,140.1856,Australia,102
GHCND:US1NYOT0030,42.561726,-75.072693,United States,425.8
GHCND:US1NMBR0005,34.9617,-106.7145,United States,1495
GHCND:US1PAAD0023,39.83805556,-77.26333333,United States,176.2
GHCND:US1NMOT0060,32.78383611,-105.9574028,United States,1258.5
GHCND:US1MOSL0079,38.717417,-90.456668,United States,159.4
GHCND:US1CAAL0012,37.6702,-121.8814,United States,104.9
GHCND:US1COME0075,39.07235,-108.557331,United States,1403.3
GHCND:US1WASJ0021,48.668235,-122.912483,United States,25.6
GHCND:BKM00014557,44.55,18.7,Bosnia & Herzegovina,307
GHCND:US1KYOL0008,38.429309,-85.3569895,United States,253
GHCND:ASN00059081,-31.2659,152.9645,Australia,8
GHCND:ASN00060096,-32.2583,152.1208,Australia,0
GHCND:US1NMDA0050,32.387673,-106.719984,United States,1335.9
GHCND:ASN00070345,-35.0258,148.7279,Australia,520
GHCND:US1MOBN0064,38.982048,-92.337748,United States,205.7
GHCND:US1INAL0029,41.026083,-85.299389,United States,256
GHCND:US1INDL0022,40.1931,-85.3916,United States,288.6
GHCND:ASN00068257,-34.0615,150.7735,Australia,112
GHCND:US1CTHR0036,41.767444,-72.775794,United States,107.9
GHCND:US1CASJ0003,37.9912,-121.3333,United States,2.1
GHCND:US1MDGR0012,39.620699,-79.247508,United States,834.2
GHCND:USC00128442,38.26714,-87.14299,United States,198.1
GHCND:ASN00068250,-34.0128,150.7675,Australia,106
GHCND:ASN00063059,-33.4548,149.8341,Australia,1190
GHCND:ASN00023118,-34.9469,138.6049,Australia,47
GHCND:US1NMDA0002,32.3223,-106.7881,United States,1186.9
GHCND:US1MDHR0017,39.70606667,-76.34243333,United States,201.5
GHCND:US1NJSM0003,40.49296398,-74.51745272,United States,32
GHCND:US1MDBL0025,39.370148,-76.418862,United States,14.9
GHCND:US1PACH0048,39.793769,-75.941448,United States,132.3
GHCND:US1NJBG0020,40.968162,-74.090223,United States,25
GHCND:US1TXEP0040,31.736096,-106.30876,United States,1187.2
GHCND:US1NMBR0326,35.0713,-106.54363,United States,1654.1
GHCND:US1KYSP0008,38.132991,-85.405975,United States,210.9
GHCND:US1INPT0002,41.5912,-87.1041,United States,203
GHCND:USC00202788,44.565,-85.4133,United States,338.9
GHCND:ASN00091144,-41.6797,146.8319,Australia,310
GHCND:USC00280484,39.7576,-74.107,United States,7.9
GHCND:US1INMD0025,40.06382,-85.69164,United States,271
GHCND:ASN00092113,-41.4136,148.2744,Australia,25
GHCND:US1OHCK0001,39.942034,-83.805126,United States,303.9
GHCND:USR0000CCPT,38.4594,-109.0469,United States,2465.2
GHCND:US1NMCB0017,35.061472,-107.680744,United States,1887.9
GHCND:US1CASR0026,34.3725,-117.34038,United States,1090.6
GHCND:US1NMBR0365,35.1672,-106.5095,United States,1802
GHCND:US1NMOT0042,32.910229,-105.928789,United States,1380.1
GHCND:CA1ON000384,42.10907,-83.04078,Canada,186.2
GHCND:US1INJF0001,38.695977,-85.472744,United States,232
GHCND:US1INDL0025,40.0851,-85.3488,United States,315.8
GHCND:US1INSJ0058,41.622462,-86.216338,United States,266.1
GHCND:USR0000COZE,34.6819,-119.3539,United States,1118.6
GHCND:US1MDPG0027,38.768869,-76.913905,United States,71
GHCND:US1LAWF0004,30.892842,-91.364056,United States,73.8
GHCND:US1CAMR0002,38.005033,-122.635413,United States,133.8
GHCND:US1CASH0037,40.503176,-122.541281,United States,327.4
GHCND:US1NJMD0055,40.5557785,-74.36843872,United States,41.8
GHCND:CA1ON000432,42.831754,-82.045235,Canada,193.9
GHCND:US1INSJ0012,41.743805,-86.267756,United States,217
GHCND:US1AZPM0105,31.812,-111.016,United States,915
GHCND:US1CASN0015,38.611604,-122.657529,United States,151.5
GHCND:US1AZPM0164,32.24442,-110.875853,United States,760.2
GHCND:US1CASZ0047,37.06355,-122.1514,United States,530
GHCND:US1NMTR0010,34.4811,-106.3328,United States,1933.3
GHCND:US1WAJF0011,48.1239387,-122.8267881,United States,71
GHCND:US1OHAB0008,41.751112,-80.583433,United States,301.1
GHCND:US1MDPG0008,38.802784,-76.918511,United States,79.9
GHCND:US1INOW0018,39.225,-86.69805,United States,209.1
GHCND:US1COMT0007,38.47226,-107.8494,United States,1791.3
GHCND:US1MICS0011,41.789096,-85.949489,United States,259.1
GHCND:US1NYCT0022,42.341661,-78.452813,United States,488.6
GHCND:ASN00063190,-33.4094,149.5564,Australia,730
GHCND:ASN00094230,-43.0203,147.4792,Australia,95
GHCND:US1ARSR0003,35.9107279,-92.65521057,United States,289.9
GHCND:US1MIOK0037,42.56314,-83.371272,United States,287.7
GHCND:ASN00051160,-31.7069,148.6358,Australia,288
GHCND:US1CTMD0027,41.32916667,-72.5175,United States,57.9
GHCND:ASN00097085,-41.8444,145.5419,Australia,1119.5
GHCND:US1SDRB0007,45.864393,-96.699157,United States,322.8
GHCND:US1NYSF0024,40.798232,-73.150036,United States,20.1
GHCND:US1INDR0006,39.179455,-84.903205,United States,245.1
GHCND:ASN00091271,-41.3959,147.3006,Australia,351.1
GHCND:US1OHCY0047,41.57964,-81.55116,United States,182.3
GHCND:US1COME0102,39.03175354,-108.5367813,United States,1425.2
GHCND:USC00315424,35.2625,-81.0777,United States,185.9
GHCND:US1OHCK0005,39.87176895,-83.81833649,United States,318.8
GHCND:US1NMDA0195,32.2582,-106.76429,United States,1180.5
GHCND:US1NMVL0031,34.7985878,-106.6826477,United States,1478.3
GHCND:US1VAFX0053,38.9083619,-77.1549129,United States,121.9
GHCND:US1NMLU0041,32.14998,-107.77397,United States,1302.4
GHCND:US1NMLA0011,35.90248871,-106.3066025,United States,2218.9
GHCND:US1NMSN0002,35.323722,-106.547444,United States,1539.8
GHCND:US1KYHN0003,37.825,-86.6725,United States,189.9
GHCND:ASN00010913,-33.3289,117.1844,Australia,320
GHCND:US1NYMD0020,43.0214,-75.57551,United States,285.6
GHCND:USC00208653,42.7256,-83.0394,United States,228.6
GHCND:USC00443468,39.2875,-78.3625,United States,347.5
GHCND:US1MSAD0003,31.5695,-91.35515,United States,57
GHCND:ASN00023907,-34.9161,138.8991,Australia,375
GHCND:US1MNMR0017,46.026078,-94.354336,United States,338.6
GHCND:ASN00091201,-40.8453,145.1231,Australia,8
GHCND:US1INOR0011,38.47367,-86.449652,United States,189.9
GHCND:US1AZPM0322,32.477619,-110.917184,United States,935.1
GHCND:US1NJSS0040,41.0703,-74.88899,United States,272.8
GHCND:US1NYCB0006,42.4727,-73.6439,United States,100.9
GHCND:US1MDBL0051,39.237333,-76.68515,United States,46
GHCND:USR0000CCLE,34.2711,-118.1525,United States,914.4
GHCND:US1PAVN0014,41.333946,-79.713867,United States,416.7
GHCND:US1RIPR0016,41.845162,-71.440373,United States,49.1
GHCND:US1NJHN0008,40.672725,-74.903003,United States,123.1
GHCND:US1CAHM0034,40.789504,-124.07954,United States,32.3
GHCND:US1NCGL0044,36.045631,-79.712898,United States,214.9
GHCND:US1OHER0007,41.377262,-82.62429,United States,191.4
GHCND:US1CANV0035,39.23815537,-121.0462875,United States,848
GHCND:US1AZPM0240,32.36583328,-110.9678345,United States,810.2
GHCND:US1NJBG0011,40.794355,-74.119043,United States,8.2
GHCND:USC00192175,42.5742,-72.868,United States,502
GHCND:CA1ON000644,42.60151,-80.66328,Canada,200.3
GHCND:US1INPT0029,41.471724,-87.053625,United States,248.1
GHCND:US1INAL0088,40.971313,-84.86365,United States,240.8
GHCND:US1NMSR0005,33.23687,-107.36526,United States,1461.8
GHCND:US1INEL0040,41.49283333,-85.83783333,United States,247.5
GHCND:US1OHSC0013,38.80242,-82.95679,United States,247.5
GHCND:US1WAWC0075,48.725793,-122.468403,United States,117
GHCND:US1INNB0004,41.404058,-85.366454,United States,284.4
GHCND:US1PAMT0043,40.088491,-75.35807,United States,53.3
GHCND:US1CTFR0012,41.130556,-73.596111,United States,98.8
GHCND:US1AZPM0109,31.960748,-110.991934,United States,874.2
GHCND:US1OHAL0010,40.700909,-84.096605,United States,270.1
GHCND:US1ILCK0032,41.926584,-87.656239,United States,185.9
GHCND:US1OHOT0006,41.527944,-82.823976,United States,179.8
GHCND:US1CTLT0015,42.002,-73.0825,United States,270.7
GHCND:US1CASD0028,32.85621,-116.996085,United States,143.3
GHCND:US1MDWH0003,39.642307,-77.701839,United States,160
GHCND:US1NMSF0059,35.5253,-105.8998,United States,2096.7
GHCND:US1CAMR0034,38.00909,-122.68828,United States,0
GHCND:US1MOFSA207,36.8464,-89.9391,United States,171.9
GHCND:USC00033910,36.1197,-93.5772,United States,408.4
GHCND:US1ORJC0089,42.26752472,-122.8750992,United States,557.8
GHCND:USC00205805,42.6808,-82.7674,United States,179.5
GHCND:US1MIKN0039,42.898951,-85.697975,United States,209.1
GHCND:US1MICF0005,44.8365,-84.7298,United States,390.1
GHCND:USS0005P04S,35.7,-105.81,United States,2502.4
GHCND:US1PAAD0022,39.82556534,-77.26987457,United States,161.8
GHCND:US1DENC0025,39.327653,-75.727739,United States,21
GHCND:US1CAHM0011,40.572831,-124.144371,United States,39
GHCND:ASN00058207,-29.0374,152.8055,Australia,105
GHCND:US1CAVT0019,34.227,-119.035,United States,50.3
GHCND:US1CTHR0002,41.746935,-72.763018,United States,65.8
GHCND:US1AZPM0329,32.371851,-111.013836,United States,725.1
GHCND:US1LAAV0005,31.1282,-92.07929,United States,25
GHCND:ASN00095075,-42.6803,146.7756,Australia,118
GHCND:ASN00091301,-41.4089,147.2914,Australia,405
GHCND:USW00053871,34.98694,-81.0575,United States,203.9
GHCND:US1MILN0017,41.81615,-83.9807,United States,216.4
GHCND:US1NJMN0058,40.300365,-74.331093,United States,25.3
GHCND:US1MDCR0024,39.57391,-76.97782,United States,258.2
GHCND:US1NMDA0048,32.3331666,-106.74106,United States,1288.1
GHCND:US1MIWS0018,42.252142,-83.602779,United States,233.2
GHCND:US1NMBR0255,35.10104,-106.49535,United States,1797.4
GHCND:US1OHFR0034,40.019149,-83.04369,United States,247.5
GHCND:US1NCRW0002,35.563451,-80.658223,United States,263.3
GHCND:USC00043244,37.5422,-122.0158,United States,11.6
GHCND:US1INLK0058,41.5514,-87.267,United States,192.6
GHCND:US1NYRN0014,42.66657257,-73.64269257,United States,177.1
GHCND:US1NMLU0049,31.840101,-107.982763,United States,1382.9
GHCND:US1CASD0023,33.026667,-117.271243,United States,81.1
GHCND:US1NYCB0016,42.456554,-73.668121,United States,100.9
GHCND:US1CAYL0009,38.55229,-121.78551,United States,17.4
GHCND:US1MDCC0002,39.5896,-75.8347,United States,20.1
GHCND:USR0000NLSP,36.4,-81.2833,United States,914.4
GHCND:US1PACH0011,39.915039,-75.703197,United States,101.5
GHCND:US1AZPM0238,31.878716,-110.989746,United States,875.4
GHCND:US1PAMT0042,40.288652,-75.21001,United States,88.4
GHCND:US1INKS0057,41.2585,-85.66342,United States,258.8
GHCND:USC00377581,41.6268,-71.2093,United States,27.4
GHCND:ASN00009852,-34.8883,118.3958,Australia,60
GHCND:USW00094050,40.04417,-107.88861,United States,1940.4
GHCND:US1WAFY0005,48.7612,-118.661317,United States,743.1
GHCND:US1DENC0035,39.48918152,-75.62999725,United States,4.3
GHCND:ASN00039066,-25.6167,151.6156,Australia,110.9
GHCND:US1MIBR0020,42.492422,-85.391616,United States,286.2
GHCND:ASN00067114,-33.8667,150.8611,Australia,75
GHCND:US1NJSL0002,39.656066,-75.333833,United States,14.3
GHCND:USC00114991,38.6002,-89.8177,United States,151.8
GHCND:US1NMSM0028,35.67241667,-105.6876667,United States,2244.2
GHCND:USC00040503,35.1658,-118.6438,United States,1249.7
GHCND:US1NMDA0272,32.3456,-106.722,United States,1304.8
GHCND:US1NMBR0170,35.16406767,-106.3037846,United States,2033.3
GHCND:CA1ON000093,42.4193115,-82.0386963,Canada,185.9
GHCND:CA001026562,49.3333,-124.4,Canada,58
GHCND:US1NYOD0011,43.08588,-75.54227,United States,187.1
GHCND:US1MAWR0043,42.23076001,-71.8607723,United States,197.5
GHCND:US1MIKN0001,42.856934,-85.642552,United States,212.1
GHCND:USC00071200,39.5917,-75.7325,United States,24.4
GHCND:US1MNOT0005,46.28533333,-96.06625,United States,366.7
GHCND:US1NMLU0046,32.26061,-107.671628,United States,1299.1
GHCND:US1INFD0004,38.36412,-85.798177,United States,152.1
GHCND:US1OHAZ0002,40.50908,-84.431916,United States,283.2
GHCND:US1NMBR0102,35.168611,-106.486667,United States,1886.7
GHCND:US1NMTR0017,34.710008,-106.169656,United States,1914.1
GHCND:US1NMDA0136,32.330524,-106.763653,United States,1229
GHCND:US1INGR0007,40.652935,-85.662348,United States,261.2
GHCND:US1MDPG0035,38.7287,-76.8798,United States,34.1
GHCND:USC00265194,39.0199,-119.7088,United States,1487.4
GHCND:US1TXEP0044,31.798876,-106.464188,United States,1211.3
GHCND:USR0000CANZ,33.555,-116.673,United States,1194.8
GHCND:US1RINW0020,41.64079,-71.2065,United States,36
GHCND:US1NJMN0044,40.371631,-73.997234,United States,8.2
GHCND:US1MIGT0021,44.59871667,-85.48426667,United States,281.3
GHCND:US1MDAA0008,38.9966,-76.645,United States,38.4
GHCND:ASN00079105,-37.068,142.7412,Australia,227.9
GHCND:US1ILSC0026,38.48795319,-89.79602051,United States,131.1
GHCND:CA001113542,49.3667,-121.5,Canada,39
GHCND:SPE00156540,41.6739,1.7678,Spain,349
GHCND:US1CAED0017,38.73384476,-120.7110062,United States,887
GHCND:US1OHSH0010,40.2504853,-84.4052586,United States,306
GHCND:US1MDPG0043,38.82243,-76.90641,United States,77.7
GHCND:US1MDPG0068,38.997797,-76.879297,United States,53
GHCND:US1NCAS0008,36.405125,-81.477944,United States,976.3
GHCND:US1COMT0031,38.5246,-107.7488,United States,2107.4
GHCND:US1NVCC0017,39.13891,-119.75792,United States,1435.6
GHCND:US1INEL0014,41.589622,-85.8767,United States,241.1
GHCND:US1OHMY0023,39.71705246,-84.16682434,United States,295.7
GHCND:US1INSH0023,39.5592,-85.7803,United States,244.1
GHCND:US1CAMA0008,37.116,-120.252,United States,72.5
GHCND:US1MOCG0016,37.416675,-89.652329,United States,152.7
GHCND:US1PACD0011,40.3133,-76.9386,United States,173.1
GHCND:US1WAJF0022,48.1178648,-122.7880613,United States,54.6
GHCND:US1CABT0019,39.7525462,-121.8027759,United States,78.3
GHCND:US1VAMN0004,37.150191,-80.431343,United States,623
GHCND:US1NMOT0011,33.0067,-105.8415,United States,1939.1
GHCND:US1PAHN0002,40.16754,-78.13631,United States,572.4
GHCND:US1NCCT0025,35.732117,-81.177032,United States,294.4
GHCND:US1ARPY0005,35.002317,-92.626277,United States,92.4
GHCND:ASN00040570,-27.6964,152.3569,Australia,125
GHCND:US1CASH0072,40.39997864,-122.2935944,United States,152.1
GHCND:US1OHMY0056,39.74192,-84.14727,United States,279.8
GHCND:US1WVKN0026,38.349862,-81.751854,United States,243.5
GHCND:US1ARNW0006,36.026953,-93.229961,United States,619.7
GHCND:US1NJOC0004,39.590666,-74.348407,United States,3
GHCND:US1RIKN0019,41.6822,-71.4595,United States,59.4
GHCND:US1MAMD0092,42.321795,-71.183817,United States,70.1
GHCND:USC00054735,38.02278,-107.31444,United States,2644.4
GHCND:US1NMBR0197,35.0658,-106.6034,United States,1624
GHCND:US1MDMG0005,39.1023,-77.0574,United States,134.1
GHCND:US1NMOT0063,32.942369,-105.826213,United States,2062
GHCND:CA1ON000650,43.001547,-80.28693,Canada,187.1
GHCND:USC00306525,42.4647,-79.003,United States,368.8
GHCND:US1NCWT0024,36.166729,-81.608981,United States,1135.4
GHCND:US1CASD0124,33.082253,-117.093133,United States,232.3
GHCND:US1ARVB0008,35.66089249,-92.77021027,United States,521.8
GHCND:US1WAIS0021,48.3071,-122.63252,United States,58.8
GHCND:US1OHPB0010,39.755302,-84.629742,United States,319.4
GHCND:US1OHHD0015,40.656497,-83.6053384,United States,307.5
GHCND:US1NMBR0264,35.20889,-106.67306,United States,1570.9
GHCND:US1NCDV0006,35.9734,-80.4415,United States,226.8
GHCND:US1CATH0007,40.207341,-122.234748,United States,130.5
GHCND:US1MDCV0018,38.685683,-76.534533,United States,16.5
GHCND:ASN00024583,-34.9472,138.9261,Australia,447
GHCND:US1NYER0104,42.99422,-78.752629,United States,179.5
GHCND:US1NCWT0062,36.200202,-81.876054,United States,1367.9
GHCND:US1OHAT0022,39.36027778,-82.21944444,United States,235.3
GHCND:US1NVWH0059,39.4242,-119.8,United States,1478
GHCND:US1RIPR0053,41.84613,-71.42301,United States,25.3
GHCND:CA1ON000564,43.66054,-79.40902,Canada,119.8
GHCND:US1MDAA0017,39.056194,-76.567776,United States,11.6
GHCND:US1CASN0013,38.432284,-122.745477,United States,37.5
GHCND:USR0000CCON,34.1942,-116.9131,United States,1712.4
GHCND:US1NYST0002,42.2211,-77.0251,United States,474
GHCND:US1OHCY0023,41.555168,-81.43863,United States,279.8
GHCND:US1SCYR0003,35.0842,-81.07748,United States,199.3
GHCND:US1WAOK0011,48.4946,-120.248,United States,872.6
GHCND:US1CARV0066,33.798628,-116.441778,United States,107
GHCND:US1AZPM0111,32.139041,-110.76738,United States,886.1
GHCND:US1INDL0028,40.1879,-85.472,United States,285.3
GHCND:US1MIKN0111,43.031451,-85.633783,United States,217.9
GHCND:US1INLK0034,41.514972,-87.270556,United States,190.5
GHCND:US1PAMT0117,40.09321,-75.127741,United States,93.3
GHCND:US1CTHR0041,41.69925,-72.8754,United States,78.6
GHCND:US1OHOT0008,41.548034,-82.846279,United States,178.6
GHCND:US1INCK0017,38.465937,-85.948227,United States,170.7
GHCND:US1NMSN0104,35.305485,-106.4571667,United States,1792.2
GHCND:USC00300317,42.8107,-78.3979,United States,416.1
GHCND:US1ILMD0035,38.7934761,-89.94007111,United States,169.5
GHCND:US1COGF0061,39.565792,-107.366013,United States,1758.1
GHCND:US1NMDA0011,32.382916,-106.807622,United States,1208.2
GHCND:US1PABF0020,41.9751,-76.521,United States,240.8
GHCND:US1OHAT0003,39.37182,-81.86625,United States,274.9
GHCND:ASN00009745,-34.2503,117.2428,Australia,250
GHCND:USC00049040,39.318,-120.145,United States,1798.3
GHCND:US1MNOT0011,46.26959279,-95.65220498,United States,413.3
GHCND:US1NMBR0225,35.19509,-106.670278,United States,1574
GHCND:US1NYSY0014,42.449447,-76.690464,United States,406.9
GHCND:US1PAAD0037,39.7545433,-77.27628326,United States,142.3
GHCND:ASN00092044,-41.9317,148.0736,Australia,55
GHCND:US1NYWC0019,41.042666,-73.822799,United States,90.5
GHCND:USC00162217,32.24278,-91.58889,United States,27.1
GHCND:US1MAHD0029,42.100952,-72.664164,United States,63.4
